Catalog Number,Barcode,Catalog,Class,Order,Family,Scientific Name,Type Status,Type Citation,Other Identifications,Sex and Stage,Preparation,Bioregion,Distribution,Country,Province/State,District/County,Precise Locality,Elevation (m),Centroid Latitude,Centroid Longitude,Field Number,Collector(s),Collecting Date,Specimen Count,Record Status,Genetic Sample Type,Biorepository Number,Bold ID,GenBank Numbers,Preservation Method,Embargo?,Depleted?,Record Last Modified,EZID
USNMENT   802312,USNMENT00802312,Entomology Types,,,,,Holotype,Proceedings of the United States National Museum. 68 (2611): 81.,,1 Adult Female,Pinned,,,United States,Texas,Tarrant,Arlington,,,,,[Not Stated],3 Nov 1917 (Nov 3 1917),1,"Reviewed, Dec 2012, Reviewed by Michael Gates, USDA SEL.",,,,,,,,1/9/2014 19:37,http://n2t.net/ark:/65665/337ad5f75-6231-4c5d-b958-0222bf0110bd
USNMENT  1547050,USNMENT01547050,Entomology Types,,,,,,,,1 Adult Female,Pinned,,,United States,Florida,Monroe,"Kitching, Sugarloaf Key",,24.6422,-81.5117,,"Peck, S.; Peck, J.","19 Nov 1985 to 26 Feb 1986 (November 19, 1985 - February 26, 1986)",1,"Reviewed, 12 Sep 2021, Submitted by TH Atkinson, SI.",,,,,,,,9/12/2021 23:25,http://n2t.net/ark:/65665/3ea732da9-b67f-43aa-aec5-28aa65b7e539
USNMENT  1547051,USNMENT01547051,Entomology Types,,,,,,,,1 Adult Female,Pinned,,,United States,Florida,Monroe,"Watsons Hammock, Big Pine Key",,24.6922,-81.3728,,"Browne, J. E.","4 Jun 1986 (June 4, 1986)",1,"Reviewed, 12 Sep 2021, Submitted by TH Atkinson, SI.",,,,,,,,9/12/2021 23:35,http://n2t.net/ark:/65665/3ebbb9fd7-ba0b-4e6a-9ae3-6dd5133d460f
USNMENT  1570898,USNMENT01570898,Entomology Types,Insecta,Hymenoptera,Chalcidoidea,A guizoti Giraud,,,,1 Adult,Pinned,,,United States,Indiana,,Lafayetter,,40.4167,-86.8753,,Satterthwaite,([not stated]),1,"Reviewed, 10 Jul 2021, Reviewed by Meg Phillips, SI.",,,,,,,,7/10/2021 22:38,http://n2t.net/ark:/65665/398deb995-b69d-46b1-a266-fdb639a63ed6
,,Inquire Types,Insecta,Psocoptera,Philotarsidae,Aaroniella gressitti,Allotype,,,1 Male,Slide,,,United States,Florida,Pinellas,St. Petersburg,,27.7731,-82.64,,[Not Stated],(9 March),1,"Unreviewed, Aug 2009, legacy data of uncertain quality.",,,,,,,,10/13/2015 20:46,http://n2t.net/ark:/65665/333c1bfad-3ec8-45a8-b87e-a4d2f29f014f
,,Entomology Types,Insecta,Coleoptera,Cleridae,"Ababa crinita Casey, 1897",Type,Casey. 1897. Annals of the New York Academy of Sciences. 9: 654.,,1 Adult,Pinned,,,United States,Texas,,Brownsville; Texas,,,,,Wickham,,1,"Data submitted by specialist, Sep 2012.",,,,,,,,1/9/2014 15:57,http://n2t.net/ark:/65665/3b217880d-cc41-479d-aee6-a74c7f2a2d66
,,Inquire Types,Insecta,Coleoptera,Staphylinidae,"Ababactus pallidiceps Casey, xxxx1886",,,,,,,,United States,California,Sonoma,Santa Rosa,,38.4405,-122.714,,[Not Stated],,1,"Unreviewed, Aug 2009, legacy data of uncertain quality.",,,,,,,,3/4/2011 14:33,http://n2t.net/ark:/65665/3b5e99478-f889-4857-92ef-7dcd8d820c49
,,Inquire Types,Insecta,Coleoptera,Staphylinidae,"Ababactus pallidiceps Casey, xxxx1886",,,,,,,,United States,California,Mendocino,Soda Springs; Anderson Valley,,39.0232,-123.315,,[Not Stated],,1,"Unreviewed, Aug 2009, legacy data of uncertain quality.",,,,,,,,3/4/2011 14:31,http://n2t.net/ark:/65665/3a9f92ed6-79b9-44c6-afda-76178673bdaa
,,Entomology Types,Insecta,Coleoptera,Staphylinidae,"Ababactus pallidiceps Casey, xxxx1886",Type,Casey. 1886. Bulletin of the California Academy of Sciences. 6: 209.,,1 Adult,Pinned,,,United States,California,Sonoma,Santa Rosa,,38.4405,-122.714,,[Not Stated],,1,"Data submitted by specialist, Sep 2012.",,,,,,,,1/9/2014 15:43,http://n2t.net/ark:/65665/36b6fccf2-6d18-434a-acda-874548b5040e
,,Entomology Types,Insecta,Coleoptera,Carabidae,"Abacidus planifer Casey, 1913",Holotype,Lindroth. 1975.,,1 Adult Female,Pinned,,,United States,Indiana,[Not Stated],[Not Stated],,,,,[Not Stated],,1,"Data submitted by specialist, Sep 2012.",,,,,,,,1/9/2014 15:52,http://n2t.net/ark:/65665/3e77eb6b2-a3b0-4e95-a7b7-09a042912962
,,Entomology Types,Insecta,Lepidoptera,Noctuidae,"Abagrotis crumbi Franclemont, 1955",Holotype,"Franclemont. 1955. Bulletin of the Brooklyn Entomological Society. 50: 44, figs. 2,3 male genitalia, fig. 1 female genitalia.",,male,Pinned; Slide,,,United States,Washington,Yakima,White Swan,,46.3944,-120.703,,"Crumb, S. E.",5 Jun 1933 (VI-5-33),1,"Reviewed, 2013.",,,,,,,,4/29/2013 14:26,http://n2t.net/ark:/65665/3de96e986-1961-4788-b823-6135172d4733
,,Entomology Types,Insecta,Lepidoptera,Noctuidae,"Abagrotis crumbi race benjamini Franclemont, 1955",Holotype,Franclemont. 1955. Bulletin of the Brooklyn Entomological Society. 50: 46.,,male,Pinned; Slide,,,United States,New York,Kings,"East New York, Brooklyn",,40.6668,-73.8824,,"Weeks, A. C.",17 Sep 1900 (7.17.00),1,"Reviewed, 2013.",,,,,,,,4/29/2013 14:26,http://n2t.net/ark:/65665/36161bbae-4edb-456e-a002-dfe7642c1130
,,Entomology Types,Insecta,Lepidoptera,Noctuidae,"Abagrotis tristis Barnes & McDunnough, 1912",Lectotype,"Barnes & McDunnough. 1912. Contributions to the Natural History of the Lepidoptera of North America. 1 (5): 8, pl. 1, fig. 17.",,male,Pinned; Slide,,,United States,Arizona,Pinal,Santa Catalina Mountains,,32.4431,-110.788,,[Not Stated],,1,"Reviewed, 2013.",,,,,,,,4/29/2013 14:26,http://n2t.net/ark:/65665/3c14a8eea-292c-4ebc-a619-528051aa8f47
,,Inquire Types,Insecta,Diptera,Phoridae,"Abaristophora diversipennis Borgmeier, 1962",Holotype,,,1 Male,,,,United States,Montana,Glacier,Glacier Park; Two Medicine Lake,,48.4769,-113.388,,"Melander, A. L.",3 Aug 1935 (3 AUG. 35),1,"Unreviewed, Aug 2009, legacy data of uncertain quality.",,,,,,,,9/2/2009 12:49,http://n2t.net/ark:/65665/3c053809d-4658-4839-9cd4-05d526ea38e7
,,Inquire Types,Insecta,Hymenoptera,Trichogrammatidae,Abbella auriscutellum Girault,Type,,,,,,,United States,Florida,Pinellas,St. Petersburg,,27.7731,-82.64,,[Not Stated],(9 March),1,"Unreviewed, Aug 2009, legacy data of uncertain quality.",,,,,,,,1/9/2014 19:43,http://n2t.net/ark:/65665/3b56823be-8d11-49e2-986e-ca4cf65b86ba
,,Inquire Types,Insecta,Hymenoptera,Trichogrammatidae,"Abbella perditrix Gahan, 1918",Paratype,,,,,,,United States,Arizona,Maricopa,Tempe,,33.4294,-111.943,,"Wildermuth, V. L.",,1,"Unreviewed, Aug 2009, legacy data of uncertain quality.",,,,,,,,1/9/2014 19:44,http://n2t.net/ark:/65665/3707a746e-5aba-443a-8820-9d1e546db4dc
,,Inquire Types,Insecta,Hymenoptera,Trichogrammatidae,Abbella subflava Girault,Syntype,,,,Slide,,,United States,District of Columbia,,[Not Stated],,38.8951,-77.0364,,[Not Stated],,1,"Unreviewed, Aug 2009, legacy data of uncertain quality.",,,,,,,,1/7/2014 17:30,http://n2t.net/ark:/65665/3515780b6-445a-4e2e-8830-8af2d9b99b22
,,Inquire Types,Insecta,Hemiptera,Delphacidae,"Abbrosoga errata Caldwell, 1951",Holotype,,,,,,,United States,Puerto Rico,[Not Stated],Toro Negro Mountains,,18.1733,-66.4922,,[Not Stated],14-Nov-47,1,"Unreviewed, Aug 2009, legacy data of uncertain quality.",,,,,,,,10/7/2015 20:13,http://n2t.net/ark:/65665/3ed922498-78a3-45f5-bc04-32a94e6deb30
,,Entomology Types,Insecta,Lepidoptera,Plutellidae,"Abebaea cockerella Busck, 1903",Holotype,"Busck, A. 1903. Jl. N.Y. Ent. Soc. 11 (1): 54.","Ypsolopha cockerella (Busck, 1903)",Male,Pinned,,,United States,New Mexico,Dona Ana,Mesilla Park,,32.2758,-106.767,,"Cockerell, T. D.",,1,"Reviewed, Jan 2011, John W. Brown, USDA SEL.",,,,,,,,1/9/2014 16:37,http://n2t.net/ark:/65665/3160e5448-435a-4155-aaab-137927cd8dc9
,,Entomology Types,Insecta,Lepidoptera,Plutellidae,"Abebaea delicatella Busck, 1903",Syntypes,"Busck, A. 1903. Jl. N.Y. Ent. Soc. 11 (1): 53.","Ypsolopha delicatella (Busck, 1903)",Male; Female,Pinned,,,United States,Arizona,Yuma,Desert,,32.7869,-113.983,,[Not Stated],,2,"Reviewed, Jan 2011, John W. Brown, USDA SEL.",,,,,,,,1/9/2014 16:37,http://n2t.net/ark:/65665/387771f79-30aa-4e5e-a1ff-6a43231cb715
,,Entomology Types,Insecta,Lepidoptera,Plutellidae,"Abebaea gerdanella Busck, 1903",Holotype,"Busck, A. 1903. Jl. N.Y. Ent. Soc. 11 (1): 53.","Ypsolopha gerdanella (Busck, 1903)",Female,Pinned,,,United States,New Mexico,Dona Ana,Mesilla Park,,32.2758,-106.767,,"Cockerell, T. D.",,1,"Reviewed, Jan 2011, John W. Brown, USDA SEL.",,,,,,,,1/9/2014 16:37,http://n2t.net/ark:/65665/3cb6506d8-b953-45bd-9a30-50290e563ae3
,,Entomology Types,Insecta,Lepidoptera,Plutellidae,"Abebaea nella Busck, 1903",Holotype,"Busck, A. 1903. Jl. N.Y. Ent. Soc. 11 (1): 54.","Ypsolopha nella (Busck, 1903)",Male,Pinned,,,United States,Arizona,Coconino,Williams,,35.2494,-112.19,,"Barber, H. S.",,1,"Reviewed, Jan 2011, John W. Brown, USDA SEL.",,,,,,,,1/9/2014 16:37,http://n2t.net/ark:/65665/392264d63-fd01-4767-b207-f7f4888b40a6
,,Entomology Types,Insecta,Lepidoptera,Plutellidae,"Abebaea querciella Busck, 1903",Holotype,"Busck, A. 1903. Jl. N.Y. Ent. Soc. 11 (1): 55.","Ypsolopha querciella (Busck, 1903)",Female,Pinned,,,United States,Arizona,Coconino,Williams,,35.2494,-112.19,,"Schwarz, E. A.",,1,"Reviewed, Jan 2011, John W. Brown, USDA SEL.",,,,,,,,1/9/2014 16:37,http://n2t.net/ark:/65665/399dee272-0d62-410d-aa6f-340a5a4986ce
,,Inquire Types,Insecta,Hymenoptera,Trichogrammatidae,Abella americana Girault,Type,,,,Slide,,,United States,Utah,Salt Lake,Salt Lake City,,40.7608,-111.891,,"Ainslie, C. N.",17 Jan 1912 (JAN.17.1912),1,"Unreviewed, Aug 2009, legacy data of uncertain quality.",,,,,,,,1/7/2014 17:32,http://n2t.net/ark:/65665/384a9e596-9c52-474d-a53a-3653c31cd1d2
,,Inquire Types,Insecta,Hymenoptera,Trichogrammatidae,Abella auriscutellum Girault,Syntype,,,1 Female,Slide,,,United States,Arizona,Maricopa,Tempe,,33.4294,-111.943,,[Not Stated],"26 May 1914 (MAY 26, 1914)",1,"Unreviewed, Aug 2009, legacy data of uncertain quality.",,,,,,,,1/7/2014 17:32,http://n2t.net/ark:/65665/32901a2df-052e-455c-a485-968c7bc7c39c
,,Inquire Types,Insecta,Hymenoptera,Trichogrammatidae,Abella perditrix Gahan,Holotype,,,1 Female,Slide,,,United States,Arizona,Maricopa,Tempe,,33.4294,-111.943,,"Wildermuth, V. L.",,1,"Unreviewed, Aug 2009, legacy data of uncertain quality.",,,,,,,,1/7/2014 17:32,http://n2t.net/ark:/65665/333d6d961-09da-4f46-a05a-bcab746d4409
,,Inquire Types,Insecta,Hymenoptera,Unknown hymenoptera,Abellela americana Girault,Type,,,,,,,United States,Utah,Salt Lake,Salt Lake City,,40.7608,-111.891,,"Ainslie, C. N.","12 Jan 1912 (JAN 17, 1912)",1,"Unreviewed, Aug 2009, legacy data of uncertain quality.",,,,,,,,1/9/2014 19:44,http://n2t.net/ark:/65665/3f93ec2f1-3d47-4a16-9797-7bd49df5e974
,,Inquire Types,Insecta,Hemiptera,Diaspididae,Abgrallaspis coloratus,Type,,"Ponana (Neopana) avena Delong & Freytag, 1967",,Slide,,,United States,New Mexico,Dona Ana,Las Cruces,,32.3144,-106.779,,"Cockerell, T. D.","24 Jul 1893 (JULY 24, 1893)",1,"Unreviewed, Aug 2009, legacy data of uncertain quality.",,,,,,,,10/7/2015 20:06,http://n2t.net/ark:/65665/3d608fb09-8ede-439a-b017-4d0f491b6a82
,,Inquire Types,Insecta,Hemiptera,Diaspididae,"Abgrallaspis liriodendri Miller & Howard, 1981",Holotype,,,,,,,United States,Louisiana,Washington,West of Bogalusa,,30.7947,-89.8906,,"Howard, F. W.",25 May 1971 (25-V-1971),1,"Unreviewed, Aug 2009, legacy data of uncertain quality.",,,,,,,,10/7/2015 20:05,http://n2t.net/ark:/65665/38f3a4ba7-b690-4447-8338-139fc2fe2e60
,,Inquire Types,Insecta,Diptera,Chironomidae,Ablabesmyia alaskensis Roback,Holotype,,,,Slide,,,United States,Alaska,[Not Stated],Matanuska; Eklutna Highway,,61.4042,-149.1,,"Sommerman, K. M.",22 Jun 1964 (22 JUNE 1964),1,"Unreviewed, Aug 2009, legacy data of uncertain quality.",,,,,,,,1/9/2014 20:22,http://n2t.net/ark:/65665/342f81069-0e50-4744-8a6c-c135484999d1
,,Inquire Types,Insecta,Diptera,Chironomidae,"Ablabesmyia arietina Coquillett, 1908",Type,,Tanypus,,,,,United States,New York,Clinton,Plattsburgh,,44.6995,-73.4529,,[Not Stated],,1,"Unreviewed, Aug 2009, legacy data of uncertain quality.",,,,,,,,1/9/2014 20:05,http://n2t.net/ark:/65665/3f739812e-875f-4505-b4dc-4c8c3686700d
,,Inquire Types,Insecta,Diptera,Chironomidae,Ablabesmyia philosphagnus Beck,Holotype,,,1 Male,Slide,,,United States,Florida,Saint Johns,roadside ditch,,,,,[Not Stated],20 Feb 1965 (20 FEB. 1965),1,"Unreviewed, Aug 2009, legacy data of uncertain quality.",,,,,,,,1/9/2014 20:21,http://n2t.net/ark:/65665/3ece8c893-0f72-4b93-84e7-cd75470fc313
,,Inquire Types,Insecta,Diptera,Chironomidae,Ablabesmyia rhamphe Sublette,Holotype,,,,,,,United States,Louisiana,Natchitoches,[not stated],,31.73,-93.1,,[Not Stated],16 Jun 1957 (16-VI-1959),1,"Unreviewed, Aug 2009, legacy data of uncertain quality.",,,,,,,,1/9/2014 20:21,http://n2t.net/ark:/65665/30a0edf6a-18ec-4c96-9d92-9183a4244cfc
,,Inquire Types,Insecta,Diptera,Asilidae,"Ablautus coquilletti Wilcox, 1935",Holotype,,,1 Male,Pinned,,,United States,California,Los Angeles,[Not Stated],,34.3213,-118.225,,Coquillett,,1,"Unreviewed, Aug 2009, legacy data of uncertain quality.",,,,,,,,4/22/2013 14:44,http://n2t.net/ark:/65665/3811230e5-b2ba-4d2d-ab61-f8a8dfe0b2d9
,,Inquire Types,Insecta,Diptera,Asilidae,"Ablautus flavipes Coquillett, 1904",Type,,,,Pinned,,,United States,California,Los Angeles,[Not Stated],,34.05,-118.25,,"Coquillett, D. W.",([Not Stated]),1,"Unreviewed, Aug 2009, legacy data of uncertain quality.",,,,,,,,1/9/2014 20:04,http://n2t.net/ark:/65665/3a60834dc-0605-4123-87e8-051f0388f9da
,,Inquire Types,Insecta,Diptera,Asilidae,"Ablautus rubens Coquillett, 1904",Type,,,,Pinned,,,United States,Washington,[Not Stated],[not stated],,,,,[Not Stated],,1,"Unreviewed, Aug 2009, legacy data of uncertain quality.",,,,,,,,1/9/2014 20:04,http://n2t.net/ark:/65665/3811eb9dc-3e28-47a3-8294-b143128d0b05
,,Entomology Types,Insecta,Coleoptera,Melyridae,"Ablechrus puertoricanus Wittmer, 1979",Holotype,1979. Entomologica Basiliensis. 4: 350.,,1 Adult Male,Pinned,,,United States,Puerto Rico,Adjuntas,Adjuntas,,18.1628,-66.7222,,[Not Stated],23-Mar-33,1,"Data submitted by specialist, Sep 2012.",,,,,,,,1/9/2014 20:02,http://n2t.net/ark:/65665/36943acc2-5a52-4991-ad2e-d69dd014a051
,,Entomology Types,Insecta,Coleoptera,Melyridae,"Ablechrus testaceomimus Wittmer, 1979",Holotype,1979. Entomologica Basiliensis. 4: 348.,,1 Adult Male,Pinned,,,United States,Puerto Rico,Adjuntas,Adjuntas,,18.1628,-66.7222,,[Not Stated],23-Mar-33,1,"Data submitted by specialist, Sep 2012.",,,,,,,,1/9/2014 20:02,http://n2t.net/ark:/65665/38b3b9c55-bf53-4006-a527-f22ddaf2416f
,,Entomology Types,Insecta,Lepidoptera,Noctuidae,"Ablepharon absidum Harvey, 1875",Primary Syntype,Harvey. 1875. Bulletin of the Buffalo Society of Natural Sciences. 2: 275.,"Copablepharon absida (Harvey, 1875)",,Pinned; Slide,,,United States,Oregon,[Not Stated],[not stated],,,,,[Not Stated],,1,"Reviewed, 2013.",,,,,,,,4/29/2013 17:10,http://n2t.net/ark:/65665/30958b729-aed0-4cb7-9dd7-967368713771
,,Inquire Types,Insecta,Hymenoptera,Encyrtidae,Ablerus americanus Girault,Type,,,,,,,United States,District of Columbia,,Washington,,38.8951,-77.0364,,[Not Stated],14 Jun 1911 (JUNE 14-11),1,"Unreviewed, Aug 2009, legacy data of uncertain quality.",,,,,,,,1/9/2014 19:44,http://n2t.net/ark:/65665/39173a5b8-a699-4822-9a5d-3c822b1b080e
,,Entomology Types,Insecta,Coleoptera,Staphylinidae,"Abletobium pallescens Casey, 1905",Lectotype,"Watrous, L. E. 1981.",,1 Adult,Pinned,,,United States,Massachusetts,[Not Stated],[Not Stated],,,,,[Not Stated],,1,"Data submitted by specialist, Sep 2012.",,,,,,,,1/9/2014 15:54,http://n2t.net/ark:/65665/36ac7a3a3-e52c-4f51-aff4-0846bf92803e
,,Inquire Types,Insecta,Lepidoptera,Glyphipterigidae,"Abrenthia cuprea Busck, 1915",Lectotype,,,,,,,United States,Pennsylvania,Philadelphia,Roxborough,,40.0539,-75.2419,,"Haimbach, F.",Jun 1927 (VI 27),1,"Unreviewed, Aug 2009, legacy data of uncertain quality.",,,,,,,,1/9/2014 16:44,http://n2t.net/ark:/65665/3f72a1ac6-dd4d-4bc9-8d5c-54e94700d0c6
,,Entomology Types,Insecta,Lepidoptera,Noctuidae,"Abrostola mariana Walter, 1928",Primary Syntypes,Walter. 1928. Proceedings of the Entomological Society of Washington. 30: 138.,,2 male,Pinned; Slide,,,United States,Arizona,Maricopa,Tempe,,33.4294,-111.943,,"Walter, E. V.; Martinez M.","3 Dec 1923 (DEC 3, 1923)",2,"Reviewed, 2013.",,,,,,,,1/9/2014 17:42,http://n2t.net/ark:/65665/32a5d3e74-302e-4e2f-b0e9-dca9ef327e3f
,,Entomology Types,Insecta,Lepidoptera,Noctuidae,"Abrostola parvula Barnes & McDunnough, 1916",Lectotype,Barnes & McDunnough. 1916. Canadian Entomologist. 48: 225.,,male,Pinned; Slide,,,United States,Arizona,[Not Stated],Southern Arizona,,,,,Poling,,1,"Reviewed, 2013.",,,,,,,,4/29/2013 14:26,http://n2t.net/ark:/65665/307f6c1b0-5e23-4520-aaea-0a1923edf898
,,Entomology Types,Insecta,Coleoptera,Melandryidae,"Abstrulia variegata Casey, 1900",Type,,,1 Adult,Pinned,,,United States,Pennsylvania,[Not Stated],[Not Stated],,,,,[Not Stated],,1,"Data submitted by specialist, Sep 2012.",,,,,,,,4/29/2013 17:26,http://n2t.net/ark:/65665/3b525edc2-315a-493a-9982-5122faa3edcf
398313 .003,USNMENT00398313.003,Entomology Types,Insecta,Hemiptera,Aphididae,"Abstrusomyzus reticulatus (Heie, 1972)",,,"Ovatus reticulatus Heie, 1972",Immature,Slide section,,,United States,North Carolina,McDowell,"Pleasant Gardens, Marion",,35.6889,-82.0783,,"Heie, O. E.",13-Oct-61,2,"Reviewed, 2008, Colin Favret, for USDA SEL.",,,,,,,,10/7/2015 16:11,http://n2t.net/ark:/65665/340e5e522-d3f3-482f-b519-9e4af3e4c67e
USNMENT  1524109,USNMENT01524109,Inquire Types,Insecta,Hymenoptera,Ichneumonidae,Absyrtus arealis Cushman,Type,,,,,,,United States,Maryland,Montgomery,Cabin John,,38.9754,-77.158,,"Fouts, R. M.",5-Aug-17,1,"Unreviewed, Aug 2009, legacy data of uncertain quality.",,,,,,,,3/18/2019 17:45,http://n2t.net/ark:/65665/362f3c6f5-0513-4b2b-911c-6f9593f73c73
,,Inquire Types,Insecta,Hymenoptera,Ichneumonidae,Absyrtus perilissoides Cushman,Type,,,,,,,United States,Connecticut,Hartford,Hartford,,41.7637,-72.6851,,[Not Stated],24 Jun 1894 (6/24 '94),1,"Unreviewed, Aug 2009, legacy data of uncertain quality.",,,,,,,,1/7/2014 17:35,http://n2t.net/ark:/65665/3fe05591a-f36c-4b8e-856d-ce882fc68ba3
,,Entomology Types,Insecta,Coleoptera,Bruchidae,"Abutiloneus idoneus Bridwell, 1946",Holotype,Bridwell. 1946. J. Wash. Acad. Sci. 36: 55.,,1 Adult,Pinned,,,United States,Texas,,Brownsville; Tex,,,,,Bibby; Higdon,19 Dec 1939 (12.19.39),1,"Data submitted by specialist, Sep 2012.",,,,,,,,1/9/2014 19:56,http://n2t.net/ark:/65665/3422c2944-cdcf-4c30-b439-aaa3c38a088e
,,Entomology Types,Insecta,Coleoptera,Curculionidae,"Acacalles indigens Fall & Cockerell, 1907",Type,"Fall & Cockerell, T. D. 1907. Transactions of the American Entomological Society. 33: 268.",,1 Adult,Pinned,,,United States,New Mexico,Otero,Cloudcroft,,32.9547,-105.741,,[Not Stated],,1,"Data submitted by specialist, Sep 2012.",,,,,,,,4/29/2013 17:27,http://n2t.net/ark:/65665/328d08b8d-bd3a-436a-8f47-38634ef96148
,,Inquire Types,Insecta,Lepidoptera,Pyralidae,Acallis centralis Dyar,Type,,,,,,,United States,Arizona,Coconino,Williams,,35.2494,-112.19,,"Barber, H. S.",,1,"Unreviewed, Aug 2009, legacy data of uncertain quality.",,,,,,,,2/1/2022 21:32,http://n2t.net/ark:/65665/3fb537a54-6f56-4988-afdc-7d827d14c35b
,,Inquire Types,Insecta,Lepidoptera,Pyralidae,Acallis mitchelli Dyar,Holotype,,,,,,,United States,Texas,Brewster,Brewster Co.; Tx.; Chisos Mts.,,29.8119,-103.252,,Mitchell; Cushman,10 Jun 1908 to 12 Jun 1908,1,"Unreviewed, Aug 2009, legacy data of uncertain quality.",,,,,,,,2/1/2022 21:38,http://n2t.net/ark:/65665/35eaf1165-16bd-4213-b388-3cf762b9e751
,,Entomology Types,Insecta,Coleoptera,Curculionidae,"Acallodes saltoides Dietz, 1896",Type,Dietz. 1896. Transactions of the American Entomological Society. 23: 416.,,1 Adult,Pinned,,,United States,Minnesota,[Not Stated],[not stated],,,,,[Not Stated],,1,"Data submitted by specialist, Sep 2012.",,,,,,,,1/9/2014 19:49,http://n2t.net/ark:/65665/34694f059-d618-4163-a6a1-12a68cdddd45
,,Entomology Types,Insecta,Coleoptera,Staphylinidae,"Acalophaena compacta Casey, 1905",Type,,,1 Adult,Pinned,,,United States,Arizona,Cochise,[Not Stated],,31.8806,-109.754,,[Not Stated],,1,"Data submitted by specialist, Sep 2012.",,,,,,,,4/24/2013 19:27,http://n2t.net/ark:/65665/3e11ceabd-55f8-4bd6-a374-ac34b6d63c58
USNMENT   871398,USNMENT00871398,Entomology Types,Insecta,Coleoptera,Chrysomelidae,"Acalymma gouldi Barber, 1947",Type,Barber. 1947. Proceedings of the Entomological Society of Washington. 49 (6): 154.,,1 Adult Male,Pinned,,,United States,Indiana,Tippecanoe,"Purdue University, Lafayette",,40.4167,-86.8753,,"Gould, G. E.",([Not Stated]),1,"Data submitted by specialist, Sep 2012.",,,,,,,,3/2/2017 15:04,http://n2t.net/ark:/65665/3bf55d89e-c8f0-4ba8-8fe7-09e4d3b10f24
USNMENT   871100,USNMENT00871100,Entomology Types,Insecta,Hemiptera,Tingidae,"Acalypta barberi Drake, 1934",Holotype,196,,1 Adult Female,Pinned,,,United States,Nevada,[Not Stated],Merrifield,,,,,"Crosby, C. R.",21 Jul 1927 (July 21 '27),1,"Reviewed, 19 Apr 2007, reviewed by T.Henry, SEL.",,,,,,,,4/13/2017 14:10,http://n2t.net/ark:/65665/3614695a7-1ae2-45ad-8e26-d3fc36c45626
USNMENT   866003,USNMENT00866003,Entomology Types,Insecta,Hemiptera,Tingidae,"Acalypta cooleyi Drake, 1917",Holotype,1917. The Ohio Journal of Science. 17: 213.,,1,Pinned,,,United States,Montana,Gallatin,Bozeman,,45.6778,-111.047,,[Not Stated],([Not Stated]),1,"Reviewed, 25 Jun 2010, reviewed by T.Henry, SEL.",,,,,,,,4/13/2017 14:00,http://n2t.net/ark:/65665/3b4626a36-3c46-4bdb-8e43-b31bbf80309d
USNMENT   871103,USNMENT00871103,Entomology Types,Insecta,Hemiptera,Tingidae,"Acalypta nyctalis Drake, 1928",Holotype,"3, 5.",,1 Adult Female,Pinned,,,United States,New Hampshire,Grafton,Franconia,,44.227,-71.7479,,[Not Stated],([Not Stated]),1,"Reviewed, 17 Sep 2009, reviewed by T.Henry, SEL.",,,,,,,,4/13/2017 14:10,http://n2t.net/ark:/65665/3b13d3b03-ccb3-436f-a897-fdbf245d5732
,,Entomology Types,Insecta,Coleoptera,Curculionidae,"Acamptus echinus Casey, 1892",Type,Casey. 1892. Annals of the New York Academy of Sciences. 6: 445.,,1 Adult,Pinned,,,United States,New York,Erie,Buffalo,,42.8864,-78.8784,,[Not Stated],,1,"Data submitted by specialist, Sep 2012.",,,,,,,,1/9/2014 15:50,http://n2t.net/ark:/65665/311cf098f-ac0c-4f51-b386-86154fc0fa85
,,Inquire Types,Insecta,Hemiptera,Acanaloniidae,Acanalonia brevifrons Muir,Holotype,,,,,,,United States,Puerto Rico,Loíza,Punta Cangrejos,,18.4597,-65.9911,,"Wolcott, G. N.",24 Jun 1923 (JUNE 24 1923),1,"Unreviewed, Aug 2009, legacy data of uncertain quality.",,,,,,,,10/7/2015 19:57,http://n2t.net/ark:/65665/3fe387246-e7d4-4d97-af0d-15e433d8c8ef
,,Inquire Types,Insecta,Hemiptera,Acanaloniidae,Acanalonia laticosta Doering,Allotype,,,,,,,United States,Texas,,Olivia; Tex,,,,,"Mitchell, J. D.",19 Jun 1907 (VI. 19. 07),1,"Unreviewed, Aug 2009, legacy data of uncertain quality.",,,,,,,,10/8/2015 16:09,http://n2t.net/ark:/65665/31377d6bc-f168-4a3a-b175-8cc2156009f9
,,Inquire Types,Insecta,Hemiptera,Acanaloniidae,Acanalonia planata Ball,Holotype,,,,,,,United States,Texas,,Brownsville; Texas,,,,,"Snow, F. H.",,1,"Unreviewed, Aug 2009, legacy data of uncertain quality.",,,,,,,,10/7/2015 19:57,http://n2t.net/ark:/65665/326564dda-0d02-4e24-88af-7c5fcac60013
,,Inquire Types,Insecta,Hemiptera,Acanaloniidae,Acanalonia saltonia Ball,Holotype,,,,,,,United States,California,Imperial,Imperial,,32.8476,-115.569,,Ball,18-Jun-09,1,"Unreviewed, Aug 2009, legacy data of uncertain quality.",,,,,,,,10/7/2015 19:26,http://n2t.net/ark:/65665/3ba7bfd29-9f4a-438e-83c7-d1ea01791553
USNMENT  1570960,USNMENT01570960,Inquire Types,Insecta,Hymenoptera,Figitidae,Acanthaegilips brasiliensis Ashmead,,,,,,,,United States,Florida,Pinellas,St. Petersburg,,27.7731,-82.64,,[Not Stated],(9 March),1,"Unreviewed, Aug 2009, legacy data of uncertain quality.",,,,,,,,1/14/2020 20:39,http://n2t.net/ark:/65665/3f1b7e470-3785-485a-b726-a065d3432ec4
,,Entomology Types,Insecta,Hemiptera,Saldidae,"Acanthia hirta Say, 1832",Neotype,,,1 Adult Male,Pinned,,,United States,Florida,[Not Stated],9 Miles north of Flamingo,,25.2308,-80.8258,,"Polhemus, J. T.",4 Feb 1968 (II-4-1968),1,"Reviewed, 29 Sep 2009, reviewed by T.Henry, SEL.",,,,,,,,11/4/2016 17:35,http://n2t.net/ark:/65665/332338533-76ed-4ec6-b0eb-ef5076cd1896
,,Entomology Types,Insecta,Hemiptera,Saldidae,"Acanthia humilis Say, 1832",Neotype,,,1 Adult Male,Pinned,,,United States,Florida,Brevard,Cocoa Beach,,28.1519,-80.595,,"Polhemus, J. T.","15 Aug 1962 (VIII-15,1962)",1,"Reviewed, 29 Sep 2009, reviewed by T.Henry, SEL.",,,,,,,,11/4/2016 17:35,http://n2t.net/ark:/65665/38551f1b6-2b44-4f52-b1cb-982ae456687c
,,Entomology Types,Insecta,Hemiptera,Saldidae,"Acanthia interstitialis Say, 1825",Neotype,,,,Pinned,,,United States,Missouri,Buchanan,St. Joseph,,39.7581,-94.8367,,[Not Stated],([Not Stated]),1,"Reviewed, 29 Sep 2009, reviewed by T.Henry, SEL.",,,,,,,,11/4/2016 17:47,http://n2t.net/ark:/65665/3b35dc593-d2cf-40b8-8496-1da9227256fe
,,Entomology Types,Insecta,Hemiptera,Saldidae,"Acanthia lugubris Say, 1832",Neotype,,,1 Adult Male,Pinned,,,United States,Iowa,Story,Ames,,42.0014,-93.62,,"Polhemus, J. T.; Polhemus, T.",28 Mar 1945 (5-28-45),1,"Reviewed, 29 Sep 2009, reviewed by T.Henry, SEL.",,,,,,,,11/4/2016 17:39,http://n2t.net/ark:/65665/3fbc07fc4-7c7c-43d2-93a8-12aa305e758a
,,Entomology Types,Insecta,Coleoptera,Anthicidae,"Acanthinus glareosus Werner, 1966",Holotype,Werner. 1966. Annals of the Entomological Society of America. 59 (1): 1275.,,1 Adult Male,Pinned,,,United States,Florida,Miami-Dade,Miami,,25.7753,-80.2089,,"Kirk, V. M.",19-Nov-61,1,"Data submitted by specialist, Sep 2012.",,,,,,,,4/24/2013 20:21,http://n2t.net/ark:/65665/33e699f44-2fc7-437e-aaf1-9715fe364946
,,Inquire Types,Insecta,Orthoptera,Acrididae,Acanthlurus piperatus Scudder,Type,,,1 Female,Pinned,,,United States,New Mexico,Dona Ana,"Organ Mountains, La Cueva",1615,32.3333,-106.582,,Townsend,,1,"Unreviewed, Aug 2009, legacy data of uncertain quality.",,,,,,,,10/6/2015 18:19,http://n2t.net/ark:/65665/3315cd056-cca3-48cd-b6b5-5de17daf94d5
,,Inquire Types,Insecta,Orthoptera,Tettigoniidae,Acanthocara similis Thomas,Type,,,1 Female,Pinned,,,United States,Florida,[Not Stated],[Not Stated],,,,,[Not Stated],,1,"Unreviewed, Aug 2009, legacy data of uncertain quality.",,,,,,,,10/6/2015 18:15,http://n2t.net/ark:/65665/368ae22f1-e335-4c7d-b70f-7b7d22098414
USNMENT   871233,USNMENT00871233,Entomology Types,Insecta,Hemiptera,Tingidae,Acanthochila exquisita Uhler,Syntype,,,1 Adult Male,Pinned,,,United States,Florida,[Not Stated],Biscayne Bay,,25.5658,-80.2164,,Heidemann,([Not Stated]),1,"Reviewed, 29 Sep 2009, reviewed by T.Henry, SEL.",,,,,,,,4/13/2017 14:11,http://n2t.net/ark:/65665/3aa47563a-a02e-4691-ade8-8399c29df527
USNMENT  1234705,USNMENT01234705,Inquire Types,Insecta,Diptera,Anthomyiidae,"Acanthocnema ruficauda Curran, 1929",Holotype,,,1 Male,Pinned,,,United States,Colorado,[Not Stated],Tennessee Pass,3121,39.3625,-106.311,,"Aldrich, J. M.",,1,"Unreviewed, Aug 2009, legacy data of uncertain quality.",,,,,,,,3/18/2016 18:51,http://n2t.net/ark:/65665/38cf8555c-43b1-45bb-8cbc-a24cca947f72
,,Inquire Types,Insecta,Hymenoptera,Pamphiliidae,Acantholyda (Acantholyda) pini Rohwer,Type,,,,,,,United States,District of Columbia,,Washington,,38.8951,-77.0364,,Hopkins,26 Apr 1903 (4-26-03),1,"Unreviewed, Aug 2009, legacy data of uncertain quality.",,,,,,,,1/7/2014 17:31,http://n2t.net/ark:/65665/303c22af7-4a1f-4acc-887f-afdaa40df3a3
,,Inquire Types,Insecta,Hymenoptera,Pamphiliidae,Acantholyda burkei Middlekauff,Holotype,,,,,,,United States,California,Monterey,Pacific Grove,,36.6178,-121.917,,"Burke, H. E.",29 Apr 1925 (4/29/25),1,"Unreviewed, Aug 2009, legacy data of uncertain quality.",,,,,,,,1/7/2014 17:43,http://n2t.net/ark:/65665/3c18ef5c5-8aec-499b-a0d8-a8e0393c9754
USNMENT   779386,USNMENT00779386,Entomology Types,Insecta,Hymenoptera,Pamphiliidae,"Acantholyda pini Rohwer, 1911",Holotype,,,1 Adult Female,Pinned,,,United States,District of Columbia,,Washington,,38.8951,-77.0364,,"Hopkins, A.",26-Apr-03,1,"Reviewed, Dec 2012, Reviewed by Michael Gates, USDA SEL.",,,,,,,,8/5/2013 22:06,http://n2t.net/ark:/65665/342b2c346-ce3a-48a3-a516-2e2de0274811
,,Inquire Types,Insecta,Hymenoptera,Pamphiliidae,Acantholyda thalictra Middlekauff,Holotype,,,,,,,United States,Texas,,[Not Stated],,,,,[Not Stated],([Not stated]),1,"Unreviewed, Aug 2009, legacy data of uncertain quality.",,,,,,,,1/7/2014 17:43,http://n2t.net/ark:/65665/3d66c8b00-114a-4e73-a26b-e87b68a8b6e4
USNMENT   778292,USNMENT00778292,Entomology Types,Insecta,Hymenoptera,Pamphiliidae,"Acantholyda thalictra Middlekauff, 1958",Holotype,,,1 Adult Female,Pinned,,,United States,Texas,[Not Stated],[Not Stated],,,,,[Not Stated],,1,"Reviewed, Dec 2012, Reviewed by Michael Gates, USDA SEL.",,,,,,,,8/5/2013 13:23,http://n2t.net/ark:/65665/38acab8de-a8a4-4f78-b330-b0b284611ce0
,,Entomology Types,Insecta,Hemiptera,Berytidae,"Acanthophysa echinata Uhler, 1893",Neotype,261,,1 Adult Male,Pinned,,,United States,California,Los Angeles,[Not Stated],,34.05,-118.25,,Coquillett,([Not Stated]),1,"Reviewed, 19 Apr 2007, reviewed by T.Henry, SEL.",,,,,,,,11/4/2016 17:54,http://n2t.net/ark:/65665/3541d635b-f75c-4a24-a9cf-20135b772417
,,Entomology Types,Insecta,Hemiptera,Berytidae,"Acanthophysa idaho Harris, 1941",Holotype,,,1 Adult Male,Pinned,,,United States,Idaho,Idaho,Grangeville,,45.92,-116.12,,"Harris, H. M.","20 Jun 1938 (June 20,1938)",1,"Reviewed, 29 Sep 2009, reviewed by T.Henry, SEL.",,,,,,,,11/4/2016 17:41,http://n2t.net/ark:/65665/3a7761e6e-d351-41aa-b9c7-c406844f96fc
,,Entomology Types,Insecta,Lepidoptera,Acanthopteroctetidae,"Acanthopteroctetes aurulenta Davis, 1984",Holotype,"Davis, D. R. 1984. J. Lepid. Soc. 38 (1): 47.",,Male,Pinned,,,United States,Utah,Sanpete,Head Ephraim Canyon,3048 - 3139,39.3419,-111.549,,"Hodges, R. W.","1 Aug 1981 (Aug. 1, 1981)",1,"Reviewed, Jan 2011, John W. Brown, USDA SEL.",,,,,,,,4/15/2011 14:53,http://n2t.net/ark:/65665/3a1ab442f-6cee-4f55-8710-d05c9286e43e
,,Entomology Types,Insecta,Coleoptera,Bruchidae,"Acanthoscelides baboquivari Johnson, 1974",Holotype,Johnson. 1974. Journal of the Kansas Entomological Society. 47 (2): 268.,,1 Adult,Pinned,,,United States,Arizona,Pima,Kitt Peak,1524,31.965,-111.599,,"Johnson, C. D.",5-Oct-72,1,"Data submitted by specialist, Sep 2012.",,,,,,,,1/9/2014 20:00,http://n2t.net/ark:/65665/3a1048e7a-c8da-4bae-9d3b-14cd043563ab
,,Entomology Types,Insecta,Coleoptera,Bruchidae,"Acanthoscelides daleae Johnson, 1970",Holotype,Johnson. 1970. University of California Publications in Entomology. 59: 48.,,1 Adult,Pinned,,,United States,California,San Bernardino,8 miles west of Needles,,34.848,-114.756,,"Johnson, C. D.",17 Jul 1964 (VII-17-64),1,"Data submitted by specialist, Sep 2012.",,,,,,,,1/9/2014 20:00,http://n2t.net/ark:/65665/3492934c6-df0c-42b5-a5be-f3eb9c839dae
,,Entomology Types,Insecta,Coleoptera,Bruchidae,"Acanthoscelides johnique Johnson, 1986",Holotype,Johnson. 1986. The Coleopterists Bulletin. 40 (3): 265-267.,,1 Adult Male,Pinned,,,United States,Puerto Rico,San Juan,San Juan,,18.4064,-66.0639,,"Hatchett, J.","7 Nov 1966 (Nov. 7, 1966)",1,"Data submitted by specialist, Sep 2012.",,,,,,,,1/9/2014 18:50,http://n2t.net/ark:/65665/3e05a432d-5bd0-4278-8d2f-8ab9b8915e1f
,,Entomology Types,Insecta,Coleoptera,Bruchidae,"Acanthoscelides margaretae Johnson, 1970",Holotype,Johnson. 1970. University of California Publications in Entomology. 59: 58.,,1 Adult,Pinned,,,United States,California,San Mateo,Pompomia Beach; 10 miles south of Half Moon Bay,,37.2998,-122.406,,"Johnson, C. D.",10 Oct 1965 (X-10-65),1,"Data submitted by specialist, Sep 2012.",,,,,,,,1/9/2014 20:00,http://n2t.net/ark:/65665/3b92957cd-dddb-435b-8572-859cd70502e8
,,Entomology Types,Insecta,Coleoptera,Bruchidae,"Acanthoscelides napensis Johnson, 1970",Holotype,Johnson. 1970. University of California Publications in Entomology. 59: 63.,,1 Adult,Pinned,,,United States,California,Napa,9 miles southeast of Pope Valley,,38.5229,-122.31,,"Johnson, C. D.",20 Jul 1965 (20-VII-1965),1,"Data submitted by specialist, Sep 2012.",,,,,,,,1/9/2014 19:49,http://n2t.net/ark:/65665/3e6f31460-b35b-4d0d-b884-bd6df210b87d
,,Entomology Types,Insecta,Coleoptera,Bruchidae,"Acanthoscelides obrienorum Johnson, 1970",Holotype,Johnson. 1970. University of California Publications in Entomology. 59: 65.,,1 Adult,Pinned,,,United States,Arizona,Pima,"Box Canyon, Santa Rita Mountains",,31.8017,-110.808,,"O'Brien, C. W.; O'Brien, L. B.",14 Sep 1964 (IX.14.1964),1,"Data submitted by specialist, Sep 2012.",,,,,,,,1/9/2014 20:00,http://n2t.net/ark:/65665/370a5e014-a1c1-425c-95f9-14e7cb82b8e1
,,Entomology Types,Insecta,Coleoptera,Bruchidae,"Acanthoscelides oregonensis Johnson, 1970",Holotype,Johnson. 1970. University of California Publications in Entomology. 59: 69.,,1 Adult,Pinned,,,United States,Oregon,Malheur,Ontario,,44.0269,-116.969,,[Not Stated],2 Jul 1919 (7.2.19),1,"Data submitted by specialist, Sep 2012.",,,,,,,,1/9/2014 20:00,http://n2t.net/ark:/65665/3ddb100b9-2268-4851-b494-090ff8a54616
,,Entomology Types,Insecta,Coleoptera,Bruchidae,"Acanthoscelides subaequalis Johnson, 1970",Holotype,Johnson. 1970. University of California Publications in Entomology. 59: 85.,,1 Adult,Pinned,,,United States,Arizona,Pima,Sabino Canyon; Santa Catalina Mountains,,32.3225,-110.81,,"Beal, R. S.",27 Aug 1966 (27-VII-66),1,"Data submitted by specialist, Sep 2012.",,,,,,,,1/9/2014 20:00,http://n2t.net/ark:/65665/36f91436c-2d1a-4528-b43a-2db06c065e5f
,,Entomology Types,Insecta,Coleoptera,Bruchidae,"Acanthoscelides tenuis Bottimer, 1935",Holotype,,,1 Adult Male,Pinned,,,United States,Texas,Brazroria,Pearland,,,,,"Bottimer, L. J.",11 Mar 1925 (11 MARCH '25),1,"Data submitted by specialist, Sep 2012.",,,,,,,,1/9/2014 19:53,http://n2t.net/ark:/65665/329d6b23a-66ca-4850-b6b8-ff521cda8393
,,Entomology Types,Insecta,Coleoptera,Curculionidae,"Acanthoscelis mendicus Dietz, 1896",Type,Dietz. 1896. Transactions of the American Entomological Society. 23: 400.,,1 Adult,Pinned,,,United States,Texas,,Columbus,,,,,Hubbard; Schwarz,,1,"Data submitted by specialist, Sep 2012.",,,,,,,,1/9/2014 19:49,http://n2t.net/ark:/65665/34bd87af6-77f9-4553-b32d-292e745ad91e
536699,536699,Entomology Types,Insecta,Hymenoptera,Megachilidae,"Acanthosmioides ashmeadii Titus, 1904",Type,1904. Proceedings of the Entomological Society of America. 6: 101.,,1 Male,Pinned,,,United States,Oregon,Polk,Dallas,,44.9211,-123.316,,"Ashmead, W. H.",,1,"Reviewed, Nov 2008, Natapot Warrit.",,,,,,,,1/7/2014 17:29,http://n2t.net/ark:/65665/355c9e65d-8786-4b6e-8e77-225567759254
539632,539632,Entomology Types,Insecta,Hymenoptera,Megachilidae,"Acanthosmioides ashmeadii Titus, 1904",Type,1904. Proceedings of the Entomological Society of America. 6: 101.,,1 Male,Slide,,,United States,Oregon,Polk,Dallas,,44.9211,-123.316,,"Ashmead, W. H.",,1,"Reviewed, Nov 2008, Natapot Warrit.",,,,,,,,1/7/2014 17:29,http://n2t.net/ark:/65665/3b1dbafe7-f9bc-4513-9e33-6653c884d225
,,Inquire Types,Insecta,Thysanoptera,Phlaeothripidae,"Acanthothrips albivittatus Hood, 1973",Holotype,,,,,,,United States,Illinois,McLean,Bloomington,,40.4842,-88.9937,,"Glasgow, H.","10 Jul 1908 (JULY 10,1908)",1,"Unreviewed, Aug 2009, legacy data of uncertain quality.",,,,,,,,9/2/2009 13:15,http://n2t.net/ark:/65665/39600c539-90f8-48a9-a8b4-5302df209898
,,Inquire Types,Insecta,Thysanoptera,Phlaeothripidae,"Acanthothrips perileucus Hood, 1973",Paratype,,,,,,,United States,Arizona,Cochise,5 miles west of Portal; Chiricahua Mountains,,31.8839,-109.206,,"Hood, J. D.",19-Jun-55,1,"Unreviewed, Aug 2009, legacy data of uncertain quality.",,,,,,,,10/13/2015 20:39,http://n2t.net/ark:/65665/339dd36d9-fd94-4b11-bc98-29980b004c0e
,,Inquire Types,Insecta,Thysanoptera,Phlaeothripidae,"Acanthothrips perileucus Hood, 1973",Allotype,,,,,,,United States,Arizona,Cochise,5 miles west of Portal; Chiricahua Mountains,,31.8839,-109.206,,"Hood, J. D.",18-Jun-55,1,"Unreviewed, Aug 2009, legacy data of uncertain quality.",,,,,,,,10/13/2015 20:39,http://n2t.net/ark:/65665/30a5a2c34-9ecf-416b-9c41-d11a9e4d924a
,,Inquire Types,Insecta,Thysanoptera,Phlaeothripidae,"Acanthothrips perileucus Hood, 1973",Paratype,,,,Slide,,,United States,Arizona,Cochise,5 miles west of Portal; Chiricahua Mountains,,31.8839,-109.206,,"Hood, J. D.",18-Jun-55,1,"Unreviewed, Aug 2009, legacy data of uncertain quality.",,,,,,,,10/13/2015 20:39,http://n2t.net/ark:/65665/3505fbfa2-9763-4013-bf58-965e1a8c5e8f
,,Inquire Types,Insecta,Thysanoptera,Phlaeothripidae,"Acanthothrips perileucus Hood, 1973",Holotype,,,,,,,United States,Arizona,Cochise,5 miles west of Portal; Chiricahua Mountains,,31.8839,-109.206,,"Hood, J. D.",19-Jun-55,1,"Unreviewed, Aug 2009, legacy data of uncertain quality.",,,,,,,,9/2/2009 13:15,http://n2t.net/ark:/65665/323d37642-dbcb-4798-a40c-4a218d12d41e
,,Entomology Types,Insecta,Hemiptera,Aradidae,"Acaricoris clausus Drake & Kormilev, 1958",Holotype,1958. Annals of the Entomological Society of America. 51: 244.,,1,Pinned,,,United States,Puerto Rico,Mayagüez,Mayagüez,,18.2011,-67.1397,,"Maldonado Capriles, J.",([Not Stated]),1,"Reviewed, 22 Sep 2009, reviewed by T.Henry, SEL.",,,,,,,,11/4/2016 17:28,http://n2t.net/ark:/65665/31ef269bc-3d0f-42af-b778-62ded334d3aa
,,Entomology Types,Insecta,Hemiptera,Aradidae,"Acariocoris ignotus Harris & Drake, 1944",Holotype,,,1 Adult Female,Pinned,,,United States,Louisiana,[Not Stated],"Kisatchie National Forest, Winnfield",,31.8678,-92.5856,,"Shelford, V. E.",13 Jul 1943 (7/13/43),1,"Reviewed, 29 Sep 2009, reviewed by T.Henry, SEL.",,,,,,,,11/4/2016 17:49,http://n2t.net/ark:/65665/3af6f2166-45fc-454d-b321-9af553698a0e
,,Entomology Types,Arachnida,Acari,Halacaridae,Acarothrix ampliata Unknown,Holotype,,,1 Male,slide,,,United States,Florida,[Not Stated],"Tampa Bay, Little Manatee River",,27.7122,-82.4614,,[Not Stated],12-Sep-03,1,"Data submitted by specialist, Aug 2009.",,,,,,,,10/13/2015 18:15,http://n2t.net/ark:/65665/3ee8985a0-4c7c-44cf-a3cf-5ab7d4e75cdc
USNMENT   834171,USNMENT00834171,Entomology Types,Insecta,Lepidoptera,Geometridae,"Acasis februalis Dyar, 1923",Syntype,1923. Insecutor Inscit. Menstr. 11: 21.,,1 male,Pinned; Slide,,,United States,California,San Diego,San Diego,,32.7153,-117.157,,"Coolidge, K. R.",14-Feb-20,1,"Reviewed, 2010.",,,,,,,,1/18/2018 17:00,http://n2t.net/ark:/65665/338d36760-4786-477a-a8ab-86fcca2e6df7
,,Entomology Types,Insecta,Diptera,Tachinidae,"Acaulona erythropyga Sabrosky, 1950",Holotype,,,1 male,Pinned,,,United States,Puerto Rico,Guayanilla,Guayanilla,,18.0192,-66.7919,,[Not Stated],3-Nov-49,1,"Unreviewed, Aug 2009, legacy data of uncertain quality.. Reviewed, 13 Oct 2011, Reviewed by M. Wood.",,,,,,,,3/26/2014 19:33,http://n2t.net/ark:/65665/3604365c1-af83-41ba-8267-9366161b4ed5
,,Entomology Types,Insecta,Diptera,Tachinidae,"Acemyia dentata Coquillett, 1895",Syntype,,,4 Female,Pinned,,,United States,California,Los Angeles,[Not Stated],,34.3213,-118.225,,"Coquillett, D.",,4,"Reviewed, 26 Apr 2012, Reviewed by M. Wood.",,,,,,,,3/27/2014 19:42,http://n2t.net/ark:/65665/34da82149-1854-43d6-994c-6191624b9bd9
,,Entomology Types,Insecta,Diptera,Tachinidae,"Acemyia tibialis Coquillett, 1897",Holotype,,,1 Female,Pinned,,,United States,California,[Not Stated],Santa Cruz Mountains,,37.1138,-121.953,,[Not Stated],,1,"Reviewed, 26 Apr 2012, Reviewed by M. Wood.",,,,,,,,3/27/2014 19:20,http://n2t.net/ark:/65665/3ef5b895a-6cad-4b1f-bd4f-14d95f0132a8
,,Entomology Types,Insecta,Coleoptera,Curculionidae,"Acentrinops brevicollis Casey, 1920",Type,Casey. 1920. Memoirs on the Coleoptera. IX: 457.,,1 Adult Male,Pinned,,,United States,Texas,,Alpine; Tex; 4400-6000 ft.,,,,,Wickham,20-Jul-22,1,"Data submitted by specialist, Sep 2012.",,,,,,,,1/9/2014 15:49,http://n2t.net/ark:/65665/399012a23-8b55-43b7-946f-b3b62f866385
,,Inquire Types,Insecta,Hemiptera,Cicadellidae,Aceratagallia abrupta Oman,Type,,,,,,,United States,Arizona,Yuma,"Yuma, near Colorado River",,32.73,-114.631,,"Morrison, H.","17 Jun 1915 (JUNE 17, 1915)",1,"Unreviewed, Aug 2009, legacy data of uncertain quality.",,,,,,,,10/7/2015 19:38,http://n2t.net/ark:/65665/30d48e318-014f-4b7c-92fe-bbd1cf7cd008
,,Inquire Types,Insecta,Hemiptera,Cicadellidae,Aceratagallia accola Oman,Type,,,,,,,United States,District of Columbia,,Washington,,38.8951,-77.0364,,[Not Stated],28 May 1932 (5-28-32),1,"Unreviewed, Aug 2009, legacy data of uncertain quality.",,,,,,,,10/7/2015 19:41,http://n2t.net/ark:/65665/3144922f8-2938-4570-8f46-91a675a0cd22
,,Inquire Types,Insecta,Hemiptera,Cicadellidae,Aceratagallia arida Oman,Type,,,,,,,United States,Colorado,[Not Stated],[Not Stated],,,,,[Not Stated],,1,"Unreviewed, Aug 2009, legacy data of uncertain quality.",,,,,,,,10/7/2015 19:43,http://n2t.net/ark:/65665/301bffcc0-76ca-478e-aa3f-e76ec80b8503
,,Inquire Types,Insecta,Hemiptera,Cicadellidae,Aceratagallia calcaris Oman,Type,,,,,,,United States,Colorado,,Rocky Ford,,38.0525,-103.72,,[Not Stated],7 Aug 1912 (7 AUG '12),1,"Unreviewed, Aug 2009, legacy data of uncertain quality.",,,,,,,,10/7/2015 20:14,http://n2t.net/ark:/65665/3f6226bd3-4e7c-4e6a-90c2-57c64375a48f
,,Inquire Types,Insecta,Hemiptera,Cicadellidae,Aceratagallia curta Oman,Holotype,,,,,,,United States,Arizona,Pima,Tucson,,32.2217,-110.926,,"Ball, E. D.",21-Jun-30,1,"Unreviewed, Aug 2009, legacy data of uncertain quality.",,,,,,,,10/7/2015 19:36,http://n2t.net/ark:/65665/39c64d9fa-2115-469b-b1fa-02c836e719ef
,,Inquire Types,Insecta,Hemiptera,Cicadellidae,Aceratagallia curvata Oman,Type,,,,,,,United States,Oregon,[Not Stated],[not stated],,,,,[Not Stated],,1,"Unreviewed, Aug 2009, legacy data of uncertain quality.",,,,,,,,10/7/2015 19:43,http://n2t.net/ark:/65665/32a5602dd-8d27-4c3d-893d-704a5b39ce26
,,Inquire Types,Insecta,Hemiptera,Cicadellidae,Aceratagallia dondia Oman,Type,,,,,,,United States,California,Riverside,Thermal,,33.6403,-116.139,,"Marsh, H. O.",13 Feb 1913 (FEB. 13. 1913),1,"Unreviewed, Aug 2009, legacy data of uncertain quality.",,,,,,,,10/7/2015 20:09,http://n2t.net/ark:/65665/346d0b72a-7fbe-4671-855b-9888d9adc972
,,Inquire Types,Insecta,Hemiptera,Cicadellidae,Aceratagallia grisea Oman,Holotype,,,,,,,United States,Arizona,Cochise,Huachuca Mountains,,31.4,-110.3,,Oman,11-Jun-33,1,"Unreviewed, Aug 2009, legacy data of uncertain quality.",,,,,,,,10/7/2015 19:51,http://n2t.net/ark:/65665/3d1087dc0-03df-4271-bdd5-92cae9e220f6
,,Inquire Types,Insecta,Hemiptera,Cicadellidae,Aceratagallia helveola Oman,Type,,,,,,,United States,Nevada,Clark,Overton,,36.5431,-114.446,,"Fox, D. E.","12 Jun 1929 (JUNE 12, 1929)",1,"Unreviewed, Aug 2009, legacy data of uncertain quality.",,,,,,,,10/7/2015 20:09,http://n2t.net/ark:/65665/370466454-82b9-44c1-a65b-415257bdaea8
,,Inquire Types,Insecta,Hemiptera,Cicadellidae,Aceratagallia humilis Oman,Type,,,,,,,United States,Kansas,Anderson,Garnett,,38.2828,-95.2408,,"Oman, P. W.",20 Jun 1931 (6-20-1931),1,"Unreviewed, Aug 2009, legacy data of uncertain quality.",,,,,,,,10/7/2015 19:58,http://n2t.net/ark:/65665/3517e1f43-4ec2-4361-8cd9-56f24c6a1dd0
,,Inquire Types,Insecta,Hemiptera,Cicadellidae,Aceratagallia lobata Oman,Type,,,,,,,United States,Nevada,Clark,Glendale,,36.6653,-114.567,,"Fox, D. E.",5 May 1929 (MAY 5 1929),1,"Unreviewed, Aug 2009, legacy data of uncertain quality.",,,,,,,,10/7/2015 19:46,http://n2t.net/ark:/65665/3f453defd-b19d-4191-8a4d-dbdc6a32379d
,,Inquire Types,Insecta,Hemiptera,Cicadellidae,Aceratagallia nanella Oman,Type,,,,,,,United States,Arizona,Cochise,[Not Stated],,31.8806,-109.754,,[Not Stated],,1,"Unreviewed, Aug 2009, legacy data of uncertain quality.",,,,,,,,10/7/2015 19:46,http://n2t.net/ark:/65665/3df2c8320-2c47-4540-acbb-0596b215dc25
,,Inquire Types,Insecta,Hemiptera,Cicadellidae,Aceratagallia obscura Oman,Type,,,,,,,United States,California,Yolo,Davis,,38.545,-121.741,,"Parker, W. B.",25 May 1917 (MAY 25. 17),1,"Unreviewed, Aug 2009, legacy data of uncertain quality.",,,,,,,,10/7/2015 19:36,http://n2t.net/ark:/65665/32e5af785-2995-4d58-9023-fc1fb0da7413
,,Inquire Types,Insecta,Hemiptera,Cicadellidae,Aceratagallia ovata Oman,Holotype,,,,,,,United States,Arizona,Yavapai,Yarnell Heights,,34.2225,-112.75,,Oman,29-Jun-33,1,"Unreviewed, Aug 2009, legacy data of uncertain quality.",,,,,,,,10/7/2015 19:51,http://n2t.net/ark:/65665/3d4a202f6-cb8d-4578-aa1a-699eea0e6b29
,,Inquire Types,Insecta,Hemiptera,Cicadellidae,Aceratagallia pallida Oman,Type,,,,,,,United States,Utah,Washington,St. George,,37.1042,-113.584,,"Fox, D. E.","3 Sep 1929 (SEPT. 3, 1929)",1,"Unreviewed, Aug 2009, legacy data of uncertain quality.",,,,,,,,10/7/2015 19:46,http://n2t.net/ark:/65665/3430548c4-c81b-4c44-8342-f541de28242d
,,Inquire Types,Insecta,Hemiptera,Cicadellidae,Aceratagallia robusta Oman,Type,,,,,,,United States,Nevada,Clark,Las Vegas,,36.175,-115.136,,"Fox, D. E.","6 Jul 1929 (JULY 6, 1929)",1,"Unreviewed, Aug 2009, legacy data of uncertain quality.",,,,,,,,10/7/2015 20:14,http://n2t.net/ark:/65665/3c26df998-48ed-4ba5-9c5d-3c7aa9cb4f6d
,,Inquire Types,Insecta,Hemiptera,Cicadellidae,Aceratagallia truncata Oman,Holotype,,,,,,,United States,California,Los Angeles,Lancaster,,34.6856,-118.157,,"Blanchard, R. A.",2 May 1929 (5.2.29),1,"Unreviewed, Aug 2009, legacy data of uncertain quality.",,,,,,,,10/7/2015 19:38,http://n2t.net/ark:/65665/3b03a9289-2a56-4be1-b536-580f1b912332
,,Inquire Types,Insecta,Hemiptera,Cicadellidae,Aceratagallia vastitatis Oman,Type,,,,,,,United States,Utah,Iron,Lund,,38.0075,-113.432,,"Davis, E. W.","13 Jul 1928 (JULY 13, 1928)",1,"Unreviewed, Aug 2009, legacy data of uncertain quality.",,,,,,,,10/7/2015 19:58,http://n2t.net/ark:/65665/3947f8ae5-e766-4046-a89f-5ead974c0cfe
,,Inquire Types,Insecta,Hemiptera,Cicadellidae,Aceratagallia vulgaris Oman,Type,,,,,,,United States,District of Columbia,,Washington,,38.8951,-77.0364,,"Oman, P. W.",11 Sep 1932 (IX-11-32),1,"Unreviewed, Aug 2009, legacy data of uncertain quality.",,,,,,,,10/7/2015 19:54,http://n2t.net/ark:/65665/34ca79dec-f107-4380-a168-c21f50e64ae0
,,Inquire Types,Protura,,Acerentomidae,Acerentomon americanum Ewing,Holotype,,,,Slide,,,United States,Maryland,Montgomery,Takoma Park,,38.9779,-77.0075,,[Not Stated],"27 Mar 1927 (MAR. 27,'27)",1,"Unreviewed, Aug 2009, legacy data of uncertain quality.",,,,,,,,10/8/2015 20:28,http://n2t.net/ark:/65665/341d0d291-0565-4516-b12a-3703fad3d668
,,Inquire Types,Protura,,Acerentomidae,Acerentomon andrei Ewing,Holotype,,,,,,,United States,Utah,Salt Lake,Salt Lake,,40.7608,-111.891,,"Andre, F.",3 Aug 1937 (3-VIII-37),1,"Unreviewed, Aug 2009, legacy data of uncertain quality.",,,,,,,,10/8/2015 20:28,http://n2t.net/ark:/65665/3c328eb6a-156f-4b76-8042-32e9f9163828
,,Inquire Types,Protura,,Acerentomidae,Acerentomon christensoni Ewing,Type,,,,,,,United States,Utah,Box Elder,Brigham,,41.5103,-112.015,,Christenson,"20 Apr 1938 (APRIL 20, 1938)",1,"Unreviewed, Aug 2009, legacy data of uncertain quality.",,,,,,,,10/8/2015 20:28,http://n2t.net/ark:/65665/33f95e63f-7874-4d4d-ba7a-0866f97a4ba5
,,Inquire Types,Protura,,Acerentomidae,Acerentomon conurus Ewing,Holotype,,,1 Female,,,,United States,Maryland,Montgomery,Takoma Park,,38.9779,-77.0075,,[Not Stated],10 Apr 1921 (APR. 10'21),1,"Unreviewed, Aug 2009, legacy data of uncertain quality.",,,,,,,,10/8/2015 20:28,http://n2t.net/ark:/65665/388c8bff9-e4e2-45d4-9d6a-0edb0128c610
,,Inquire Types,Protura,,Acerentomidae,Acerentomon occidentalis Ewing,Type,,,,Slide,,,United States,California,Mariposa,floor of Yosemite Valley,,37.7163,-119.665,,"Ewing, H. E.",15-Apr-27,1,"Unreviewed, Aug 2009, legacy data of uncertain quality.",,,,,,,,10/8/2015 20:28,http://n2t.net/ark:/65665/3549a8c30-1352-4df7-967d-ae5c502061e6
,,Inquire Types,Protura,,Acerentomidae,Acerentulus aureitarsus Ewing,Holotype,,,1 Female,,,,United States,Virginia,Fairfax,Difficult Run,,38.9752,-77.2354,,"Ewing, H. E.","10 Sep 1938 (SEPT. 10,'38)",1,"Unreviewed, Aug 2009, legacy data of uncertain quality.",,,,,,,,10/8/2015 19:33,http://n2t.net/ark:/65665/36fe1c7a8-447a-4578-bff6-bf3481ceccb2
,,Inquire Types,Protura,,Acerentomidae,Acerentulus barberi Ewing,Holotype,,,1 Female; 3 Female,Slide; Slide,,,United States,Maryland,Montgomery,Takoma Park,,38.9779,-77.0075,,"Ewing, H. E.",6-Mar-21,1,"Unreviewed, Aug 2009, legacy data of uncertain quality.",,,,,,,,10/8/2015 20:28,http://n2t.net/ark:/65665/3e7133cc1-5adb-4256-baad-ba847f5ef345
,,Inquire Types,Protura,,Acerentomidae,Acerentulus bicolor Ewing,Holotype,,,1 Female,,,,United States,Maryland,Montgomery,Takoma Park,,38.9779,-77.0075,,"Ewing, H. E.",10-Apr-21,1,"Unreviewed, Aug 2009, legacy data of uncertain quality.",,,,,,,,10/8/2015 20:28,http://n2t.net/ark:/65665/3b748ad8e-68b6-437e-91fa-95cea07ce5a2
,,Inquire Types,Protura,,Acerentomidae,Acerentulus californicus var. barberi Hilton,Neotype,,,,,,,United States,California,[Not Stated],[Not Stated],,,,,[Not Stated],,1,"Unreviewed, Aug 2009, legacy data of uncertain quality.",,,,,,,,10/8/2015 20:28,http://n2t.net/ark:/65665/317135ea5-9ac2-47d6-8cde-8bf46d5c3903
,,Inquire Types,Protura,,Acerentomidae,Acerentulus floridanus Ewing,Holotype,,,1 Male,,,,United States,Florida,Orange,Orlando,,28.4158,-81.2989,,"Ewing, H. E.",26-May-22,1,"Unreviewed, Aug 2009, legacy data of uncertain quality.",,,,,,,,10/8/2015 20:28,http://n2t.net/ark:/65665/30f37b7b1-0d14-4723-a08a-d2cd406f85f8
,,Inquire Types,Protura,,Acerentomidae,Acerentulus oculatus Berlin,Holotype,,,1 Female,,,,United States,Maryland,Montgomery,Takoma Park,,38.9779,-77.0075,,"Ewing, H. E.",6-Mar-21,1,"Unreviewed, Aug 2009, legacy data of uncertain quality.",,,,,,,,10/8/2015 20:28,http://n2t.net/ark:/65665/32e1d85d9-c7a9-4e14-b1c6-0872c243741d
USNMENT  1520277,USNMENT01520277,Inquire Types,Insecta,Hymenoptera,Pteromalidae,"Acerocephala aenigma Gahan, 1946",Holotype,,,,,,,United States,Oregon,Crook,Prineville,,44.3039,-120.846,,"Buckhorn, W. J.","6 Jun 1935 (JUNE 6, 1935)",1,"Unreviewed, Aug 2009, legacy data of uncertain quality.",,,,,,,,2/11/2019 20:43,http://n2t.net/ark:/65665/3ad8e7ff6-a7f4-415b-8d6a-30d6684eb7c4
,,Inquire Types,Insecta,Hymenoptera,Encyrtidae,Acerophagus erii Timberlake,Paratype,,,,,,,United States,Utah,Salt Lake,Salt Lake,,40.7608,-111.891,,Timberlake,"14 Jul 1913 (JULY 14, 1913)",1,"Unreviewed, Aug 2009, legacy data of uncertain quality.",,,,,,,,1/9/2014 19:43,http://n2t.net/ark:/65665/345c36d41-4a7e-4afc-b26e-de3a668da62b
,,Inquire Types,Insecta,Hymenoptera,Encyrtidae,"Acerophagus fasciipennis Timberlake, 1918",Holotype,,,,,,,United States,California,San Bernardino,Upland,,34.0975,-117.648,,"Clausen, C. P.",Nov 1914 (NOV. 1914),1,"Unreviewed, Aug 2009, legacy data of uncertain quality.",,,,,,,,1/9/2014 19:45,http://n2t.net/ark:/65665/31f973787-3a90-4629-b6ef-010636158d1c
,,Inquire Types,Insecta,Hymenoptera,Encyrtidae,"Acerophagus gutierreziae Timberlake, 1916",Holotype,,,,,,,United States,Florida,Pinellas,St. Petersburg,,27.7731,-82.64,,[Not Stated],(9 March),1,"Unreviewed, Aug 2009, legacy data of uncertain quality.",,,,,,,,1/9/2014 19:43,http://n2t.net/ark:/65665/3c625c6d8-d9f6-4962-85b3-886da0342544
,,Inquire Types,Insecta,Hymenoptera,Encyrtidae,"Acerophagus nubilipennis Dozier, 1926",Holotype,,,,,,,United States,Puerto Rico,San Juan,Rio Piedras,,18.3997,-66.05,,"Dozier, H. L.","26 May 1825 (MAY 26, 1825)",1,"Unreviewed, Aug 2009, legacy data of uncertain quality.",,,,,,,,1/9/2014 19:45,http://n2t.net/ark:/65665/3005f58fc-fb30-4e3e-addb-15c093e847d0
,,Inquire Types,Insecta,Hymenoptera,Platygastridae,"Acerota caryae Ashmead, 1887",Lectotype,1887. Canadian Entomologist. 19: 128.,,,,,,United States,Florida,Duval,Jacksonville,,30.3369,-81.6614,,[Not Stated],,1,"Unreviewed, Aug 2009, legacy data of uncertain quality.",,,,,,,,1/7/2014 17:28,http://n2t.net/ark:/65665/3097a52a6-8821-4805-9211-4e332e3c039f
,,Inquire Types,Insecta,Hymenoptera,Platygastridae,"Acerota cecidomyiae Ashmead, 1893",Lectotype,"1893. Bulletin of the United States National Museum. 45: 260, 261.",,,,,,United States,California,Los Angeles,[Not Stated],,34.3213,-118.225,,"Koebele, A.",,1,"Unreviewed, Aug 2009, legacy data of uncertain quality.",,,,,,,,1/7/2014 17:26,http://n2t.net/ark:/65665/347b3d5fd-6587-46af-a8a1-1df890030dc7
,,Inquire Types,Insecta,Hymenoptera,Platygastridae,"Acerota floridana Ashmead, 1887",Holotype,1887. Canadian Entomologist. 19: 128.,,,,,,United States,Florida,Duval,Jacksonville,,30.3369,-81.6614,,[Not Stated],,1,"Unreviewed, Aug 2009, legacy data of uncertain quality.",,,,,,,,1/7/2014 17:28,http://n2t.net/ark:/65665/3cf6823a3-b38c-4cb7-b011-51ab8d19061b
,,Inquire Types,Insecta,Hymenoptera,Platygastridae,"Acerota leonardi Fouts, 1925",Holotype,1925. Proceedings of the Entomological Society of Washington. 27: 147.,,,,,,United States,New York,Tompkins,McLean Bogs,,42.552,-76.291,,"Leonard, M. D.",16-May-25,1,"Unreviewed, Aug 2009, legacy data of uncertain quality.",,,,,,,,1/7/2014 17:30,http://n2t.net/ark:/65665/3e52a9487-8c8e-4ca2-8e9a-f8565dde690a
,,Entomology Types,Insecta,Hemiptera,Miridae,"Acetropis americana Knight, 1927",Holotype,206,,1 Adult Male,Pinned,,,United States,Oregon,Benton,Corvallis,,44.57,-123.28,,"Burrill, A. C.",([Not Stated]),1,"Reviewed, 29 Sep 2009, reviewed by T.Henry, SEL.",,,,,,,,11/4/2016 17:44,http://n2t.net/ark:/65665/3978f2728-b0f0-4afc-81a5-f036802dc3b9
,,Inquire Types,Insecta,Diptera,Heleomyzidae,"Achaetomus pilosus Coquillett, 1907",Type,,,,,,,United States,Massachusetts,Essex,North Saugus,,42.4959,-71.0198,,"Russell, H. M.",1906,1,"Unreviewed, Aug 2009, legacy data of uncertain quality.",,,,,,,,1/9/2014 20:04,http://n2t.net/ark:/65665/32032edaf-6b17-45e6-9980-2df53692ffcc
,,Entomology Types,Insecta,Diptera,Tachinidae,"Achaetoneura anisotae Webber, 1930",Holotype,,,1 male,Pinned,,,United States,New Jersey,Middlesex,New Brunswick,,40.4867,-74.4444,,[Not Stated],18-Jul-25,1,"Unreviewed, Aug 2009, legacy data of uncertain quality.. Reviewed, 23 Apr 2012, Reviewed by M. Wood.",,,,,,,,3/26/2014 19:52,http://n2t.net/ark:/65665/3c7e5476e-70d6-437f-9386-05dc192ae1c9
,,Entomology Types,Insecta,Diptera,Tachinidae,"Achaetoneura cuculliae Webber, 1930",Holotype,,,1 female,Pinned,,,United States,Virginia,Falls Church,Falls Church,,38.8823,-77.1711,,[Not Stated],2-Sep-17,1,"Unreviewed, Aug 2009, legacy data of uncertain quality.. Reviewed, 23 Apr 2012, Reviewed by M. Wood.",,,,,,,,3/26/2014 19:52,http://n2t.net/ark:/65665/3f33669e3-382b-47fd-bde1-a5a71236d45e
,,Entomology Types,Insecta,Diptera,Tachinidae,"Achaetoneura dimmocki Webber, 1930",Holotype,,,1 male,Pinned,,,United States,Massachusetts,Hampden,Springfield,,42.1015,-72.5898,,[Not Stated],5 Jun 1898,1,"Unreviewed, Aug 2009, legacy data of uncertain quality.. Reviewed, 26 Apr 2012, Reviewed by M. Wood.",,,,,,,,3/26/2014 19:58,http://n2t.net/ark:/65665/35dbe7d23-d987-4937-a02c-be5694559f4b
,,Entomology Types,Insecta,Diptera,Tachinidae,"Achaetoneura euchaetiae Webber, 1930",Holotype,,,1 male,Pinned,,,United States,New York,Jefferson,Redwood,,44.3008,-75.8006,,[Not Stated],18-Jul-27,1,"Unreviewed, Aug 2009, legacy data of uncertain quality.. Reviewed, 23 Apr 2012, Reviewed by M. Wood.",,,,,,,,3/26/2014 19:52,http://n2t.net/ark:/65665/30b6ce11e-4291-4224-aa92-f76c48d747f0
,,Entomology Types,Insecta,Diptera,Tachinidae,"Achaetoneura fernaldi Williston, 1896",Syntype,,,4 Male; 4 Female,Pinned,,,United States,Massachusetts,Middlesex,Malden,,42.4251,-71.0662,,[Not Stated],,8,"Reviewed, 17 May 2012, Reviewed by M. Wood.",,,,,,,,3/27/2014 19:23,http://n2t.net/ark:/65665/3c62d7d50-ab01-468d-ae11-2e57722fb805
,,Entomology Types,Insecta,Diptera,Tachinidae,"Achaetoneura laniiferae Webber, 1930",Holotype,,,1 male,Pinned,,,United States,[Not Stated],[Not Stated],[Not Stated],,,,,[Not Stated],7-Jan-27,1,"Unreviewed, Aug 2009, legacy data of uncertain quality.. Reviewed, 24 Apr 2012, Reviewed by M. Wood.",,,,,,,,3/26/2014 19:52,http://n2t.net/ark:/65665/3b8d37339-385b-4b70-b8a1-36c5e032315d
,,Entomology Types,Insecta,Diptera,Tachinidae,"Achaetoneura melalophae Allen, 1926",Holotype,,,1 Male,Pinned,,,United States,Missouri,[Not Stated],Agricultural and Mechanical College,,38.9453,-92.3289,,[Not Stated],,1,"Reviewed, 12 May 2012, Reviewed by M. Wood.",,,,,,,,3/27/2014 19:24,http://n2t.net/ark:/65665/3216c9fec-0a72-4bb7-b448-f5a3a624ad36
,,Entomology Types,Insecta,Diptera,Tachinidae,"Achaetoneura pholi Weber, 1930",Holotype,,,1 male,Pinned,,,United States,Massachusetts,Hampden,Springfield,,42.1015,-72.5898,,[Not Stated],,1,"Unreviewed, Aug 2009, legacy data of uncertain quality.. Reviewed, 24 Apr 2012, Reviewed by M. Wood.",,,,,,,,3/26/2014 19:52,http://n2t.net/ark:/65665/33a4539a9-6c98-4ad9-9869-06ffa1d17cfa
,,Inquire Types,Insecta,Diptera,Tachinidae,"Achaetoneura piperi Townsend, 1908",Lectotype,,,,,,,United States,Washington,Whitman,Pullman,,46.73,-117.17,,[Not Stated],May 1895 (5-95),1,"Unreviewed, Aug 2009, legacy data of uncertain quality.",,,,,,,,1/9/2014 20:03,http://n2t.net/ark:/65665/3348262c1-e85f-4786-a0f0-ec02b4454eb7
,,Entomology Types,Insecta,Diptera,Tachinidae,"Achaetoneura rubentis Coquillett, 1895",Holotype,,,1 Female,Pinned,,,United States,Florida,Duval,Jacksonville,,30.3369,-81.6614,,[Not Stated],,1,"Reviewed, 23 Apr 2012, Reviewed by M. Wood.",,,,,,,,3/27/2014 19:22,http://n2t.net/ark:/65665/3990dc664-b1e2-4e29-b82c-4f2a94a53b5a
,,Entomology Types,Insecta,Diptera,Tachinidae,"Achaetoneura samiae Webber, 1930",Holotype,,,1 male,Pinned,,,United States,Maine,Penobscot,"Glenborn, Carmel",,44.7976,-69.0512,,[Not Stated],8-Feb-23,1,"Unreviewed, Aug 2009, legacy data of uncertain quality.. Reviewed, 24 Apr 2012, Reviewed by M. Wood.",,,,,,,,3/26/2014 19:52,http://n2t.net/ark:/65665/3aad72884-3777-4ae0-85ff-4e6b2e758c91
,,Entomology Types,Insecta,Diptera,Tachinidae,"Achaetoneura testacea Webber, 1930",Holotype,,,1 male,Pinned,,,United States,District of Columbia,,[Not Stated],,38.8951,-77.0364,,[Not Stated],,1,"Unreviewed, Aug 2009, legacy data of uncertain quality.. Reviewed, 24 Apr 2012, Reviewed by M. Wood.",,,,,,,,3/26/2014 19:53,http://n2t.net/ark:/65665/3cd197ba6-8be8-4471-8290-8bcdb5e69f57
,,Entomology Types,Insecta,Diptera,Tachinidae,"Achaetoneura texana Webber, 1930",Holotype,,,1 male,Pinned,,,United States,Texas,[Not Stated],Dilley,,,,,[Not Stated],1-Jun-24,1,"Unreviewed, Aug 2009, legacy data of uncertain quality.. Reviewed, 24 Apr 2012, Reviewed by M. Wood.",,,,,,,,3/26/2014 19:53,http://n2t.net/ark:/65665/3bcea9a6c-a8e2-4b8f-9766-e009ea2f4387
,,Entomology Types,Insecta,Diptera,Tachinidae,"Achaetoneura westonia Webber, 1930",Holotype,,,1 male,Pinned,,,United States,California,Alameda,[Not Stated],,37.6464,-121.889,,"Koebele, A.",([Not Stated]),1,"Unreviewed, Aug 2009, legacy data of uncertain quality.. Reviewed, 24 Apr 2012, Reviewed by M. Wood.",,,,,,,,3/27/2014 20:01,http://n2t.net/ark:/65665/34eec47f7-36bf-4fa9-b280-10e2bb6454ce
,,Inquire Types,Insecta,Coleoptera,Scydmaenidae,"Acholerops retrusa Casey, 1897",,,,,,,,United States,Pennsylvania,Westmoreland,St. Vincent,,40.2913,-79.4055,,[Not Stated],,1,"Unreviewed, Aug 2009, legacy data of uncertain quality.",,,,,,,,3/4/2011 14:40,http://n2t.net/ark:/65665/3b3d25703-aed9-41f6-af63-b2c4f12e5c01
,,Inquire Types,Insecta,Coleoptera,Scydmaenidae,"Acholerops retrusa Casey, 1897",,,,,,,,United States,Pennsylvania,Westmoreland,St. Vincent,,40.2913,-79.4055,,[Not Stated],,1,"Unreviewed, Aug 2009, legacy data of uncertain quality.",,,,,,,,3/4/2011 14:40,http://n2t.net/ark:/65665/333d1f378-2739-451b-ae61-42058d6e37db
,,Inquire Types,Insecta,Coleoptera,Scydmaenidae,"Acholerops retrusa Casey, 1897",,,,,,,,United States,Pennsylvania,Westmoreland,St. Vincent,,40.2913,-79.4055,,[Not Stated],,1,"Unreviewed, Aug 2009, legacy data of uncertain quality.",,,,,,,,3/4/2011 14:40,http://n2t.net/ark:/65665/3a53d5b92-f5e6-47be-958b-78b10ddb6f23
,,Inquire Types,Insecta,Coleoptera,Scydmaenidae,"Acholerops retrusa Casey, 1897",,,,,,,,United States,Pennsylvania,Westmoreland,St. Vincent,,40.2913,-79.4055,,[Not Stated],,1,"Unreviewed, Aug 2009, legacy data of uncertain quality.",,,,,,,,3/4/2011 14:40,http://n2t.net/ark:/65665/3cef34085-4fcd-46fa-9e28-ae54966c7290
,,Inquire Types,Insecta,Coleoptera,Scydmaenidae,"Acholerops retrusa Casey, 1897",,,,,,,,United States,Pennsylvania,Westmoreland,St. Vincent,,40.2913,-79.4055,,[Not Stated],,1,"Unreviewed, Aug 2009, legacy data of uncertain quality.",,,,,,,,3/4/2011 14:40,http://n2t.net/ark:/65665/3d627981a-2c29-4a14-addf-f49240405e6f
,,Entomology Types,Insecta,Coleoptera,Scydmaenidae,"Acholerops retrusa Casey, 1897",Type,Casey. 1897. Annals of the New York Academy of Sciences. 9: 537.,,1 Adult Male,Pinned,,,United States,Pennsylvania,Westmoreland,St. Vincent,,40.2913,-79.4055,,[Not Stated],,1,"Data submitted by specialist, Sep 2012.",,,,,,,,1/9/2014 15:42,http://n2t.net/ark:/65665/38a5f6535-36b1-4bd0-b8b6-c99e79fa7ab3
,,Inquire Types,Collembola,Poduromorpha,Hypogastruridae,Achorutes biloba Maynard,Holotype,,,,Slide,,,United States,Tennessee,Montgomery,Clarksville,,36.5297,-87.3594,,"Scott, L. B.","12 Jun 1940 (JUNE 12,1940)",1,"Unreviewed, Aug 2009, legacy data of uncertain quality.",,,,,,,,10/8/2015 15:54,http://n2t.net/ark:/65665/3bfe2fad5-0663-4a2d-b062-fa9645ec05d5
,,Inquire Types,Collembola,Poduromorpha,Hypogastruridae,Achorutes harveyi Folsom,Type,,,,,,,United States,Massachusetts,Middlesex,Arlington,,42.4154,-71.1564,,"Foster, W. T.",([Not Stated]),1,"Unreviewed, Aug 2009, legacy data of uncertain quality.",,,,,,,,10/8/2015 15:54,http://n2t.net/ark:/65665/32629becf-bd93-4265-9e77-9dd19a1542d2
,,Inquire Types,Collembola,Poduromorpha,Hypogastruridae,"Achorutes humi Folsom, 1916",Lectotype,,,,Slide,,,United States,Illinois,Champaign,Urbana,,40.1106,-88.2073,,"Folsom, J. W.","2 May 1914 (MAY 2,1914)",1,"Unreviewed, Aug 2009, legacy data of uncertain quality.",,,,,,,,10/8/2015 18:10,http://n2t.net/ark:/65665/3614c9239-d226-4cd5-b48a-034541061922
,,Inquire Types,Collembola,Poduromorpha,Hypogastruridae,Achorutes macgillivrayi Folsom,Lectotype,,,,Slide,,,United States,New York,Tompkins,Ithaca,,42.4406,-76.4966,,"MacGillivray, A. D.","12 Nov 1885 (NOV. 12,1885)",1,"Unreviewed, Aug 2009, legacy data of uncertain quality.",,,,,,,,10/8/2015 15:54,http://n2t.net/ark:/65665/39bd37fcc-adc1-483a-ac15-dad51ea948cb
,,Inquire Types,Collembola,Poduromorpha,Hypogastruridae,Achorutes nivicolus Fitch,Lectotype,,,,,,,United States,New York,[Not Stated],[Not Stated],,,,,[Not Stated],,1,"Unreviewed, Aug 2009, legacy data of uncertain quality.",,,,,,,,10/8/2015 15:54,http://n2t.net/ark:/65665/3460aa16c-f7bc-4748-9c03-572bcc2d1c1e
,,Inquire Types,Collembola,Poduromorpha,Hypogastruridae,Achorutes packardi Folsom,Type,,,,,,,United States,Massachusetts,Middlesex,Cambridge,,42.3751,-71.1056,,[Not Stated],,1,"Unreviewed, Aug 2009, legacy data of uncertain quality.",,,,,,,,10/8/2015 15:54,http://n2t.net/ark:/65665/3bd3246ee-7dad-4062-b0a4-793030557d0d
,,Inquire Types,Collembola,Poduromorpha,Hypogastruridae,Achorutes packardi deutatua Folsom,Type,,,,,,,United States,Massachusetts,Middlesex,Arlington,,42.4154,-71.1564,,[Not Stated],,1,"Unreviewed, Aug 2009, legacy data of uncertain quality.",,,,,,,,10/8/2015 15:54,http://n2t.net/ark:/65665/3c1204a21-dd3d-4f7a-822b-edefafc9db8a
,,Inquire Types,Collembola,Poduromorpha,Hypogastruridae,Achorutus diversiceps Lintner,Type,,,,,,,United States,New York,[Not Stated],Center,,,,,"Lintner, J. A.",,1,"Unreviewed, Aug 2009, legacy data of uncertain quality.",,,,,,,,10/8/2015 15:54,http://n2t.net/ark:/65665/39291ddc1-4a1d-4986-b1fc-1f5576a9e6dc
,,Entomology Types,Insecta,Coleoptera,Curculionidae,Achrastenus persicae Chittenden,Type,,,1 Adult Female,Pinned,,,United States,Oklahoma,Jefferson,Ryan,,34.0217,-97.9542,,"Ray, N. W.",2-Apr-03,1,"Data submitted by specialist, Sep 2012.",,,,,,,,9/28/2012 22:53,http://n2t.net/ark:/65665/3db0cfbf5-358d-455e-9b68-f97513193de7
,,Inquire Types,Insecta,Hymenoptera,Eulophidae,Achrysocharelloidea albiscapus Girault,Type,,,,,,,United States,Florida,Pinellas,St. Petersburg,,27.7731,-82.64,,[Not Stated],(9 March),1,"Unreviewed, Aug 2009, legacy data of uncertain quality.",,,,,,,,1/9/2014 19:44,http://n2t.net/ark:/65665/31017db5e-ca02-46e5-9337-59ff08f3ae72
USNMENT  1545255,USNMENT01545255,Inquire Types,Insecta,Hymenoptera,Eulophidae,Achrysocharis aemilia Girault,Type,,,,,,,United States,Florida,Monroe,Key West,,24.5592,-81.7842,,"S., E. A.",Apr 1912 (APR. 1912),1,"Unreviewed, Aug 2009, legacy data of uncertain quality.",,,,,,,,5/29/2019 14:20,http://n2t.net/ark:/65665/3a72e3e6a-027a-41c8-a68a-9052fc762591
USNMENT  1545226,USNMENT01545226,Inquire Types,Insecta,Hymenoptera,Eulophidae,Achrysocharis athanasii Girault,Type,,,,,,,United States,Florida,Pinellas,St. Petersburg,,27.7731,-82.64,,[Not Stated],(9 March),1,"Unreviewed, Aug 2009, legacy data of uncertain quality.",,,,,,,,3/30/2020 12:52,http://n2t.net/ark:/65665/367908d1e-f325-4bf2-a371-e87d7f271a47
USNMENT  1524456,USNMENT01524456,Inquire Types,Insecta,Hymenoptera,Eulophidae,Achrysocharis camilli Girault,Type,,,,,,,United States,South Dakota,Union,Elk Point,,42.6856,-96.6817,,Ainslie,([Not Stated]),1,"Unreviewed, Aug 2009, legacy data of uncertain quality.",,,,,,,,3/11/2019 19:49,http://n2t.net/ark:/65665/39229c86f-b059-43c5-8ff1-25c8733cdc57
,,Inquire Types,Insecta,Hymenoptera,Eulophidae,Achrysocharis divina Girault,Type,,,,,,,United States,Florida,Pinellas,St. Petersburg,,27.7731,-82.64,,[Not Stated],(9 March),1,"Unreviewed, Aug 2009, legacy data of uncertain quality.",,,,,,,,1/9/2014 19:44,http://n2t.net/ark:/65665/33bcd8a92-42ef-40d3-bbe9-8311e331b3ba
,,Inquire Types,Insecta,Hymenoptera,Eulophidae,Achrysocharis donna Girault,Type,,,,,,,United States,Florida,Pinellas,St. Petersburg,,27.7731,-82.64,,[Not Stated],(9 March),1,"Unreviewed, Aug 2009, legacy data of uncertain quality.",,,,,,,,1/9/2014 19:44,http://n2t.net/ark:/65665/371cb4ddb-0f73-4187-8d17-5674480c18e4
,,Inquire Types,Insecta,Hymenoptera,Eulophidae,Achrysocharis kansensis Girault,Type,,,,,,,United States,Florida,Pinellas,St. Petersburg,,27.7731,-82.64,,[Not Stated],(9 March),1,"Unreviewed, Aug 2009, legacy data of uncertain quality.",,,,,,,,1/9/2014 19:43,http://n2t.net/ark:/65665/340f34373-6546-49bd-8d06-8c2782d0d0c9
,,Inquire Types,Insecta,Hymenoptera,Eulophidae,Achrysocharis partifuscipennis Girault,Type,,,,,,,United States,Florida,Pinellas,St. Petersburg,,27.7731,-82.64,,[Not Stated],(9 March),1,"Unreviewed, Aug 2009, legacy data of uncertain quality.",,,,,,,,1/9/2014 19:44,http://n2t.net/ark:/65665/3de688954-5072-4fdd-a1d0-0c4e5926955f
,,Inquire Types,Insecta,Hymenoptera,Eulophidae,Achrysocharis spiniformis Moser,Type,,,,,,,United States,New York,Tompkins,Ithaca,,42.4406,-76.4966,,"Moser, J. C.","16 Jul 1957 (JULY 16, 1957)",1,"Unreviewed, Aug 2009, legacy data of uncertain quality.",,,,,,,,1/9/2014 19:48,http://n2t.net/ark:/65665/3e93c77c0-63a7-47df-8710-149313372e34
,,Inquire Types,Insecta,Hymenoptera,Eulophidae,Achrysocharis vesiculis Moser,Type,,,,,,,United States,New York,Tompkins,Ithaca,,42.4406,-76.4966,,"Moser, J. C.","17 Sep 1957 (SEPT. 17, 1957)",1,"Unreviewed, Aug 2009, legacy data of uncertain quality.",,,,,,,,1/9/2014 19:48,http://n2t.net/ark:/65665/373471e9a-8575-4958-b878-e6e0f1079f59
,,Inquire Types,Insecta,Hymenoptera,Eulophidae,Achrysocharoides quizoti Girault,Type,,,,,,,United States,Indiana,Tippecanoe,Lafayelle Station,,40.4167,-86.8753,,Satterthwaite,([Not Stated]),1,"Unreviewed, Aug 2009, legacy data of uncertain quality.",,,,,,,,1/9/2014 19:44,http://n2t.net/ark:/65665/34cb55b23-80bf-4d87-af8f-365e44ed615d
,,Inquire Types,Insecta,Hymenoptera,Eulophidae,Achrysocharoides titiani Girault,Type,,,,,,,United States,Florida,Pinellas,St. Petersburg,,27.7731,-82.64,,[Not Stated],(9 March),1,"Unreviewed, Aug 2009, legacy data of uncertain quality.",,,,,,,,1/9/2014 19:43,http://n2t.net/ark:/65665/3e9697b0c-1aa1-4485-957e-a24ee279c9cf
,,Entomology Types,Insecta,Coleoptera,Cerambycidae,"Achryson (Geropa) aequicollis Casey, 1912",Type,"Casey, T. L. 1912. Memoirs on the Coleoptera. 3: 306.","Geropa concolor (LeConte, 1873)",,,,,United States,Texas,,Brownsville; Texas,,,,,Wickham,,1,"Data submitted by specialist, Jul 2011, Eugenio Nearns.",,,,,,,,1/9/2014 19:40,http://n2t.net/ark:/65665/3eee2633b-419a-44bf-b26a-d83c11ced603
,,Inquire Types,Insecta,Hymenoptera,Encyrtidae,Achrysopophagus americanus Girault,Type,,,,,,,United States,Florida,Pinellas,St. Petersburg,,27.7731,-82.64,,[Not Stated],(9 March),1,"Unreviewed, Aug 2009, legacy data of uncertain quality.",,,,,,,,1/9/2014 19:43,http://n2t.net/ark:/65665/3c2fb3773-f516-4509-a62b-8e680455e9eb
,,Inquire Types,Insecta,Orthoptera,Acrididae,"Achurum hilliardi Gurney, 1959",Holotype,,,1 Male,Pinned,,,United States,Texas,Tyler,Tyler Co.; Texas; 2 mi. So. Warren bog,,,,,"Hilliard, J. R.",24 Apr 1955 (IV-24-55),1,"Unreviewed, Aug 2009, legacy data of uncertain quality.",,,,,,,,10/6/2015 18:17,http://n2t.net/ark:/65665/38de65efc-9cce-4082-86df-c31f1c93afe5
,,Inquire Types,Insecta,Orthoptera,Acrididae,Achurum minimipenne Caudell,Type,,,1 Female,Pinned; Riker Mount,,,United States,Texas,,St. Thomas; Brownsville; Tex,,,,,[Not Stated],Apr 1926 (IV.26),1,"Unreviewed, Aug 2009, legacy data of uncertain quality.",,,,,,,,10/6/2015 18:16,http://n2t.net/ark:/65665/36138b1da-baf8-4a19-bb81-b7fc9a422083
USNMENT  1234695,USNMENT01234695,Inquire Types,Insecta,Diptera,Anthomyiidae,"Acicephala pilosella Coquillett, 1898",Syntype,1898. Jl. N.Y. Ent. Soc. 6: 163.,Cordilura pilosella,1 Male,Pinned,,,United States,Colorado,[Not Stated],[Not Stated],,,,,[Not Stated],,1,"Unreviewed, Aug 2009, legacy data of uncertain quality.",,,,,,,,3/18/2016 18:36,http://n2t.net/ark:/65665/3b6b46d54-c7d4-4ffc-b681-6358fde3e59e
USNMENT  1234696,USNMENT01234696,Inquire Types,Insecta,Diptera,Anthomyiidae,"Acicephala polita Coquillett, 1898",Syntype,1898. Jl. N.Y. Ent. Soc. 6: 163.,Cordilura polita,2 Male,Pinned,,,United States,Colorado,[Not Stated],[Not Stated],,,,,[Not Stated],,1,"Unreviewed, Aug 2009, legacy data of uncertain quality.",,,,,,,,3/18/2016 18:37,http://n2t.net/ark:/65665/34c33f0ef-cb06-4b10-a2e0-eb2ee81ad3ad
USNMENT   834024,USNMENT00834024,Entomology Types,Insecta,Lepidoptera,Geometridae,"Acidalia ancellata Hulst, 1887",Lectotype,Hulst. 1887. Entomologica Americana. 2: 186.,,1 Male,Pinned,,,United States,Arizona,[Not Stated],[Not Stated],,,,,[Not Stated],,1,"Reviewed, 2010.",,,,,,,,1/5/2018 3:39,http://n2t.net/ark:/65665/315dc8561-0998-45eb-86b5-a4c0634d5a4c
USNMENT   834049,USNMENT00834049,Entomology Types,Insecta,Lepidoptera,Geometridae,"Acidalia balistaria Guenee, 1858",Syntype,1858 [1857]. Hist. Nat. Ins. Spec. Gen. Lepid. 9: 453.,,1 Female,Pinned; Slide,,,United States,Georgia,[Not Stated],[Not Stated] am.bor.,,,,,[Not Stated],,1,"Reviewed, 2010.",,,,,,,,1/18/2018 15:57,http://n2t.net/ark:/65665/3956dd3f2-63eb-4068-8c8c-d20f712b7126
USNMENT   834072,USNMENT00834072,Entomology Types,Insecta,Lepidoptera,Geometridae,"Acidalia bucephalaria Barnes & McDunnough, 1918",Lectotype,1918. Contributions to the Natural History of the Lepidoptera of North America. 4: 135.,,male,Pinned; Slide,,,United States,California,Tuolumne,Tuolumne Meadows,,37.8761,-119.365,,[Not Stated],,1,"Reviewed, 2010.",,,,,,,,1/18/2018 16:08,http://n2t.net/ark:/65665/369b91938-9f21-43ed-9eba-4cce29e9f495
USNMENT   834117,USNMENT00834117,Entomology Types,Insecta,Lepidoptera,Geometridae,"Acidalia dataria Hulst, 1887",Lectotype,Hulst. 1887. Entomologica Americana. 2: 186.,,female,Pinned,,,United States,California,[Not Stated],[Not Stated],,,,,[Not Stated],,1,"Reviewed, 2010.",,,,,,,,1/18/2018 16:31,http://n2t.net/ark:/65665/3a5ef8ce6-5ae8-417a-bbcd-4d444cd69d8f
USNMENT   834276,USNMENT00834276,Entomology Types,Insecta,Lepidoptera,Geometridae,"Acidalia lacteola Lintner, 1878",Holotype,1878. Report to the New York State Museum of Natural History. 30: 224.,,female,Pinned,,,United States,Texas,,[Not Stated],,,,,[Not Stated],,1,"Reviewed, 2010.",,,,,,,,2/9/2018 15:05,http://n2t.net/ark:/65665/32493a226-5156-4c7b-a5ff-537c7d154df7
USNMENT   834382,USNMENT00834382,Entomology Types,Insecta,Lepidoptera,Geometridae,"Acidalia pacificaria Packard, 1871",Lectotype,1871. Proc. Boston Soc. Nat. Sci. 13: 391.,,male,Pinned; Slide,,,United States,California,[Not Stated],[Not Stated],,,,,[Not Stated],,1,"Reviewed, 2010.",,,,,,,,3/19/2020 14:01,http://n2t.net/ark:/65665/305195fdd-6317-4f41-88a4-0d167f1ba031
USNMENT   834442,USNMENT00834442,Entomology Types,Insecta,Lepidoptera,Geometridae,"Acidalia purata Guenee, 1858",Lectotype,1858 [1857]. Hist. Nat. Ins. Spec. Gen. Lepid. 9: 488.,,female,Pinned,,,United States,[Not Stated],[Not Stated],Amer. Sept.,,,,,[Not Stated],,1,"Reviewed, 2010.",,,,,,,,2/9/2018 21:29,http://n2t.net/ark:/65665/39294452b-fdb4-4b81-8f15-48879e19df57
USNMENT   834466,USNMENT00834466,Entomology Types,Insecta,Lepidoptera,Geometridae,"Acidalia rubromarginaria Packard, 1871",Syntype,1871. Proc. Boston Soc. Nat. Sci. 13: 391.,,male,Pinned,,,United States,California,[Not Stated],[Not Stated],,,,,[Not Stated],,1,"Reviewed, 2010.",,,,,,,,2/9/2018 21:44,http://n2t.net/ark:/65665/3bff61ac7-206f-4e39-90d6-b32eb95eea84
USNMENT   834498,USNMENT00834498,Entomology Types,Insecta,Lepidoptera,Geometridae,"Acidalia sideraria Guenee, 1858",Lectotype,1858 [1857]. Hist. Nat. Ins. Spec. Gen. Lepid. 9: 451.,,male,Pinned,,,United States,California,[Not Stated],[Not Stated],,,,,[Not Stated],,1,"Reviewed, 2010.",,,,,,,,10/4/2019 13:43,http://n2t.net/ark:/65665/3f3e352db-facd-4075-83f3-2e89566183f2
,,Entomology Types,Insecta,Lepidoptera,Noctuidae,"Acidaliodes eoides Barnes & McDunnough, 1913",Holotype,"Barnes & McDunnough. 1913. Contributions to the Natural History of the Lepidoptera of North America. 2 (4): 166, pl. 3, fig. 1.",,female,Pinned,,,United States,Florida,[Not Stated],Everglades,,26,-80.7,,[Not Stated],,1,"Reviewed, 2013.",,,,,,,,4/29/2013 14:25,http://n2t.net/ark:/65665/306c8d02f-4b50-4b9a-85c2-a3a103e81028
,,Inquire Types,Insecta,Diptera,Tephritidae,"Acidia sigma Phillips, 1923",Holotype,,,,,,,United States,Maryland,Montgomery,Plummers Island,,38.9694,-77.1764,,"Shannon, R. C.",20 Jun 1916 (20.6. 16),1,"Unreviewed, Aug 2009, legacy data of uncertain quality.",,,,,,,,9/2/2009 12:19,http://n2t.net/ark:/65665/3c389d3b8-9f27-4a10-952d-ab8b43f9c274
,,Inquire Types,Insecta,Diptera,Tephritidae,"Acidia solidaginis Fitch, 1855",Type,,,,,,,United States,New York,[Not Stated],[Not Stated],,,,,[Not Stated],,1,"Unreviewed, Aug 2009, legacy data of uncertain quality.",,,,,,,,1/9/2014 20:02,http://n2t.net/ark:/65665/362f5d77a-135a-4ab1-a200-74bef636608c
,,Inquire Types,Insecta,Phthiraptera,Philopteridae,"Acidoproctus kelloggi Carriker, 1902",Holotype,"1902. Jl. N.Y. Ent. Soc. 10: 228, Pl. 22 Figs. 1, 2.",,1 Male,Slide,,,United States,Nebraska,Lancaster,Lincoln,,40.8106,-96.6803,,"Carriker, M. A.",25 Mar 1901 (Unknown),1,"Unreviewed, Aug 2009, legacy data of uncertain quality.",,,,,,,,1/9/2014 20:25,http://n2t.net/ark:/65665/33e86f685-3057-4c11-8ebc-1285b3027e88
,,Entomology Types,Insecta,Coleoptera,Dytiscidae,"Acilius fraternus dismalus Matta & Michael, 1976",Holotype,1976. Entomological News. 87 (1-2): 12.,,1 Adult Female; 1 Adult Male,Pinned; Pinned,,,United States,Virginia,[Not Stated],Dismal Swamp,,36.6175,-76.4695,,Matta,6 Aug 1970 (IIX.6.1970),1,"Data submitted by specialist, Sep 2012.",,,,,,,,1/9/2014 18:51,http://n2t.net/ark:/65665/3979abb4b-d61d-42f1-9bd6-1e80b4689ee7
,,Entomology Types,Insecta,Coleoptera,Dytiscidae,Acilius semisulcatus latiusculoides Hatch,Holotype,,,1 Adult Male,Pinned,,,United States,Washington,King,Seattle,,47.6097,-122.333,,[Not Stated],16 Mar 1913 (3-16-13),1,"Data submitted by specialist, Sep 2012.",,,,,,,,9/28/2012 22:15,http://n2t.net/ark:/65665/38c6e7147-ed4b-4d43-8a56-192e2b84ac83
,,Inquire Types,Insecta,Hemiptera,Dictyopharidae,Acinaca lurida Ball & Hartzell,Syntype,,,6,,,,United States,California,Kern,Mojave,,35.0525,-118.174,,"Ball, E. D.",30-Jul-12,1,"Unreviewed, Aug 2009, legacy data of uncertain quality.",,,,,,,,10/7/2015 19:36,http://n2t.net/ark:/65665/3c060c3c0-91f5-45c0-a6e7-3b6743853a10
,,Inquire Types,Insecta,Hemiptera,Cicadellidae,Acinopterus angulatus Lawson,Holotype,,,,,,,United States,California,San Bernardino,Ontario,,34.0633,-117.651,,"Ball, E. D.",12-Jun-08,1,"Unreviewed, Aug 2009, legacy data of uncertain quality.",,,,,,,,10/7/2015 19:38,http://n2t.net/ark:/65665/36e3f3eac-7010-434a-bf92-661e4f827480
,,Inquire Types,Insecta,Hemiptera,Cicadellidae,Acinopterus bakeri Lawson,Holotype,,,,,,,United States,Arizona,Cochise,[Not Stated],,31.8806,-109.754,,[Not Stated],,1,"Unreviewed, Aug 2009, legacy data of uncertain quality.",,,,,,,,10/7/2015 19:58,http://n2t.net/ark:/65665/3901dc01f-0975-4191-8c22-baa9aae6653f
,,Inquire Types,Insecta,Hemiptera,Cicadellidae,Acinopterus brunneus Ball,Lectotype,,,,,,,United States,Colorado,,Rifle,,39.5347,-107.783,,[Not Stated],25-Jul-00,1,"Unreviewed, Aug 2009, legacy data of uncertain quality.",,,,,,,,10/7/2015 20:10,http://n2t.net/ark:/65665/3d8d2ceb9-2982-4141-bdd5-098dbda1fabc
,,Inquire Types,Insecta,Hemiptera,Cicadellidae,Acinopterus cornigera Beamer & Lawson,Holotype,,,,,,,United States,California,Kern,Lebec,,34.8416,-118.865,,"Ball, E. D.",29-Jun-34,1,"Unreviewed, Aug 2009, legacy data of uncertain quality.",,,,,,,,10/7/2015 20:09,http://n2t.net/ark:/65665/3495687f2-a1d7-47c6-abb3-d67d4625f708
,,Inquire Types,Insecta,Hemiptera,Cicadellidae,Acinopterus elongatus Lawson,Holotype,,,,,,,United States,California,Los Angeles,[Not Stated],,34.05,-118.25,,"Coquillett, D. W.",([Not Stated]),1,"Unreviewed, Aug 2009, legacy data of uncertain quality.",,,,,,,,10/7/2015 19:58,http://n2t.net/ark:/65665/3e9ac2da1-29d4-458f-8247-8931d2be3223
,,Inquire Types,Insecta,Hemiptera,Cicadellidae,Acinopterus excavatus Beamer & Lawson,Holotype,,,,,,,United States,California,Tulare,Three Rivers,,36.4388,-118.905,,Oman,9-Jun-35,1,"Unreviewed, Aug 2009, legacy data of uncertain quality.",,,,,,,,10/7/2015 20:07,http://n2t.net/ark:/65665/3531123f5-f7e0-4586-bae0-86cb7d9f6a66
,,Inquire Types,Insecta,Hemiptera,Cicadellidae,Acinopterus latus Lawson,Holotype,,,,,,,United States,[Not Stated],[Not Stated],"""Dacota""",,,,,[Not Stated],,1,"Unreviewed, Aug 2009, legacy data of uncertain quality.",,,,,,,,10/7/2015 20:10,http://n2t.net/ark:/65665/3842f66e3-01a5-4f97-935c-80927a106341
,,Inquire Types,Insecta,Hemiptera,Cicadellidae,Acinopterus obtutus Lawson,Type,,,,,,,United States,Florida,Pinellas,St. Petersburg,,27.7731,-82.64,,[Not Stated],(9 March),1,"Unreviewed, Aug 2009, legacy data of uncertain quality.",,,,,,,,10/7/2015 19:58,http://n2t.net/ark:/65665/34fdf106b-b3fe-480a-b603-f95890a2dd92
,,Inquire Types,Insecta,Hemiptera,Cicadellidae,Acinopterus pallidus Lawson,Holotype,,,,,,,United States,California,Riverside,Cabazon,,33.9175,-116.787,,Ball,20-Jun-09,1,"Unreviewed, Aug 2009, legacy data of uncertain quality.",,,,,,,,10/7/2015 19:27,http://n2t.net/ark:/65665/3db291663-3ca6-4fb8-8bf8-5632776c7c57
,,Inquire Types,Insecta,Hemiptera,Cicadellidae,Acinopterus parvulus Lawson,Holotype,,,,,,,United States,California,San Bernardino,Ontario,,34.0633,-117.651,,"Ball, E. D.",12-Jun-08,1,"Unreviewed, Aug 2009, legacy data of uncertain quality.",,,,,,,,10/7/2015 19:27,http://n2t.net/ark:/65665/39604fa08-6a7d-4988-ac38-cf0fc4614f76
,,Inquire Types,Insecta,Hemiptera,Cicadellidae,Acinopterus productus Lawson,Holotype,,,,,,,United States,California,Imperial,Imperial,,32.8476,-115.569,,Ball,18-Jun-09,1,"Unreviewed, Aug 2009, legacy data of uncertain quality.",,,,,,,,10/7/2015 19:27,http://n2t.net/ark:/65665/314d1e539-7547-4600-a77a-efbaa128fdb4
,,Inquire Types,Insecta,Hemiptera,Cicadellidae,Acinopterus rileyi Lawson,Holotype,,,,,,,United States,Texas,,[Not Stated],,,,,[Not Stated],([Not stated]),1,"Unreviewed, Aug 2009, legacy data of uncertain quality.",,,,,,,,10/7/2015 20:09,http://n2t.net/ark:/65665/3b877c4e8-591f-41a1-a1e6-547199da7563
,,Inquire Types,Insecta,Hemiptera,Cicadellidae,Acinopterus rubicundus Beamer & Lawson,Holotype,,,,,,,United States,Utah,Washington,St. George,,37.1042,-113.584,,[Not Stated],"28 Jul 1935 (JULY 28, 1935)",1,"Unreviewed, Aug 2009, legacy data of uncertain quality.",,,,,,,,10/7/2015 19:26,http://n2t.net/ark:/65665/3ba23b046-6bab-4aa8-8991-1d16e24f8d72
,,Inquire Types,Insecta,Hemiptera,Cicadellidae,Acinopterus viridis Ball,Lectotype,,,,,,,United States,Colorado,,Delta,,38.7422,-108.069,,[Not Stated],20 Jul 1898,1,"Unreviewed, Aug 2009, legacy data of uncertain quality.",,,,,,,,10/7/2015 20:10,http://n2t.net/ark:/65665/320b88231-6f44-46ba-a9e8-9d9e7f826807
,,Inquire Types,Insecta,Diptera,Tephritidae,"Aciura limata Coquillett, 1899",Type,,,,,,,United States,Massachusetts,[Not Stated],[Not Stated],,,,,Coquillett,([Not Stated]),1,"Unreviewed, Aug 2009, legacy data of uncertain quality.",,,,,,,,1/9/2014 20:03,http://n2t.net/ark:/65665/3459a91e7-8946-44b3-bb7d-3f0dc7604fb3
,,Inquire Types,Insecta,Diptera,Tephritidae,"Aciura lutea Coquillett, 1899",Type,,,,,,,United States,Utah,[Not Stated],[not stated],,,,,[Not Stated],,1,"Unreviewed, Aug 2009, legacy data of uncertain quality.",,,,,,,,1/9/2014 20:03,http://n2t.net/ark:/65665/39c9f777b-2e26-4925-9d1a-d54f0de3018a
,,Inquire Types,Insecta,Diptera,Tephritidae,"Aciura opaca Coquillett, 1899",Type,,,,,,,United States,Nevada,Elko,Elko,,40.83,-115.77,,[Not Stated],,1,"Unreviewed, Aug 2009, legacy data of uncertain quality.",,,,,,,,1/9/2014 20:03,http://n2t.net/ark:/65665/3d11b4213-4e7f-4c39-a922-d0c0b1fb863f
USNMENT  1583370,USNMENT01583370,Inquire Types,Insecta,Hymenoptera,Ichneumonidae,"Aclastus rufipes Ashmead, 1902",Type,,,,,,,United States,Alaska,Aleutians West,Saint Paul Island,,57.18,-170.27,,"Kincaid, T.",16 Aug 1897,1,"Unreviewed, Aug 2009, legacy data of uncertain quality.",,,,,,,,11/13/2019 18:58,http://n2t.net/ark:/65665/3bf5ff457-33c8-4ab6-a66b-ced3ec75f741
,,Inquire Types,Insecta,Hemiptera,Pentatomidae,"Acledra punctata Reed, 1898",Holotype,1898. Revista Chilena de Historia Natural. 2: 134.,,,Pinned,,,United States,Florida,Pinellas,St. Petersburg,,27.7731,-82.64,,[Not Stated],(9 March),1,"Unreviewed, Aug 2009, legacy data of uncertain quality.",,,,,,,,10/7/2015 19:39,http://n2t.net/ark:/65665/3f3f4c6ed-2bbf-47d2-bc70-5ee9fc0e8373
,,Inquire Types,Insecta,Hemiptera,Aclerdidae,"Aclerda andropogonis McConnell, 1943",Type,,,,Slide,,,United States,Maryland,Wicomico,[not stated],,38.4135,-76.8766,,"McConnell, H. S.","15 Oct 1941 (OCT 15, 1941)",1,"Unreviewed, Aug 2009, legacy data of uncertain quality.",,,,,,,,10/7/2015 19:32,http://n2t.net/ark:/65665/3869ef3d3-6519-4957-a546-4ccccbdb3337
,,Inquire Types,Insecta,Hemiptera,Aclerdidae,"Aclerda arundinariae McConnell, 1943",Type,,,,Slide,,,United States,South Carolina,Anderson,Anderson,,34.5144,-82.6489,,"McConnell, H. S.","31 Jul 1942 (JULY 31, 1942)",1,"Unreviewed, Aug 2009, legacy data of uncertain quality.",,,,,,,,10/7/2015 19:50,http://n2t.net/ark:/65665/3c34fa361-350a-4ba2-a2be-5258d1f22675
,,Inquire Types,Insecta,Hemiptera,Aclerdidae,"Aclerda californica (Ehrhorn, 1897)",Type,,,,Slide,,,United States,California,Santa Clara,Mountain View; in the Mountains,,37.3309,-122.183,,"Ehrhorn, E. M.",,1,"Unreviewed, Aug 2009, legacy data of uncertain quality.",,,,,,,,10/7/2015 19:50,http://n2t.net/ark:/65665/30d395603-76a2-4d8d-bf28-74fbba5f011a
,,Inquire Types,Insecta,Hemiptera,Aclerdidae,"Aclerda ferrisi McConnell, 1953",Type,,,,Slide,,,United States,Arizona,[Not Stated],"Chiricahua Mountains, near the Saddle",,31.9333,-109.263,,"Ferris, G. F.",1940,1,"Unreviewed, Aug 2009, legacy data of uncertain quality.",,,,,,,,10/7/2015 19:29,http://n2t.net/ark:/65665/33093503e-e55f-45b1-a7c7-66193fd5588f
,,Inquire Types,Insecta,Hemiptera,Aclerdidae,"Aclerda holci Teague, 1925",Type,,,,Slide,,,United States,Louisiana,Orleans,New Orleans,,29.95,-90.07,,"Catchings, T. F.",19 Nov 1924 (NOV-19-24),1,"Unreviewed, Aug 2009, legacy data of uncertain quality.",,,,,,,,10/7/2015 19:29,http://n2t.net/ark:/65665/3464fabbf-b03f-43ed-8de6-b0cb9da0d634
,,Inquire Types,Insecta,Hemiptera,Aclerdidae,"Aclerda marylandica McConnell, 1953",Type,,,,Slide,,,United States,Maryland,Queen Anne's,Stevensville; (Kent Narrows),,38.9807,-76.3144,,"McConnell, H. S.","17 Nov 1948 (NOV. 17, 1948)",1,"Unreviewed, Aug 2009, legacy data of uncertain quality.",,,,,,,,10/7/2015 20:02,http://n2t.net/ark:/65665/32715aaa2-daf4-4586-b0eb-9cf1e80b9b7f
,,Inquire Types,Insecta,Hemiptera,Aclerdidae,Aclerda tillandsiae Howell,Holotype,,,,Slide,,,United States,Georgia,Lowndes,[Not Stated],,30.83,-83.27,,Spalding,3 Dec 1971 (XII-3-1971),1,"Unreviewed, Aug 2009, legacy data of uncertain quality.",,,,,,,,10/7/2015 20:07,http://n2t.net/ark:/65665/3e3567d66-2346-4d0e-a0c7-4ebcdb63eace
,,Inquire Types,Insecta,Hemiptera,Aclerdidae,"Aclerda xalapenseae McConnell, 1943",Type,,,,Slide,,,United States,Maryland,Charles,Newport,,38.4196,-76.9033,,"McConnell, H. S.","22 Feb 1942 (FEB. 22, 1942)",1,"Unreviewed, Aug 2009, legacy data of uncertain quality.",,,,,,,,10/7/2015 19:32,http://n2t.net/ark:/65665/3e4c32e50-eec7-4d65-92b0-cdcfb55c1266
,,Entomology Types,Insecta,Lepidoptera,Tortricidae,"Acleris aenigmana Powell, 1964",Holotype,Powell. 1964. University of California Publications in Entomology. 32: 99.,,male,Pinned,,,United States,California,Nevada,Truckee,,39.328,-120.183,,[Not Stated],"(""Oct 8-15."")",1,"Reviewed, Apr 2009, Reviewed by John W. Brown, USDA SEL.",,,,,,,,4/19/2013 14:23,http://n2t.net/ark:/65665/30fdd7539-5ca2-4edd-9523-2ab41be763de
,,Entomology Types,Insecta,Lepidoptera,Tortricidae,"Acleris capizziana Obraztsov, 1963",Holotype,Obraztsov. 1963. Proceedings of the United States National Museum. 114: 252.,,female,Pinned,,,United States,Oregon,Coos,Bandon,,43.12,-124.42,,"Capizzi, J.",24 Sep 1956 (24 September 1956),1,"Reviewed, Apr 2009, Reviewed by John W. Brown, USDA SEL.",,,,,,,,4/19/2013 14:23,http://n2t.net/ark:/65665/36a0554fb-4a63-4f41-8d60-a48f861f17f1
,,Entomology Types,Insecta,Lepidoptera,Tortricidae,"Acleris cinderella Riley, 1872",Syntype,Riley. Board of Agriculture 4th Annual Report on the Noxious Beneficial and Other Insects of Missouri. 46.,Teras cinderella Riley,female,Pinned,,,United States,Missouri,[Not Stated],[not stated],,,,,Riley,([Not Stated]),1,"Reviewed, Apr 2009, Reviewed by John W. Brown, USDA SEL.",,,,,,,,1/9/2014 18:55,http://n2t.net/ark:/65665/3b46ad89e-d378-4a95-aea1-5e583414b3fb
,,Entomology Types,Insecta,Lepidoptera,Tortricidae,"Acleris clarkei Obraztsov, 1963",Holotype,Obraztsov. 1963. Proceedings of the United States National Museum. 114: 251.,,male,Pinned,,,United States,Washington,Kittitas,Cle Elum,,47.195,-120.939,,"Clarke, J.",9 Apr 1931 (9 April 1931),1,"Reviewed, Apr 2009, Reviewed by John W. Brown, USDA SEL.",,,,,,,,4/19/2013 14:23,http://n2t.net/ark:/65665/3d6c52cb9-cbe4-4c39-90c7-0953e2fd6cf8
,,Entomology Types,Insecta,Lepidoptera,Tortricidae,"Acleris incognita Obraztsov, 1963",Holotype,Obraztsov. 1963. Proceedings of the United States National Museum. 114: 254.,,female,Pinned,,,United States,Idaho,Latah,Moscow Mountains,,46.8033,-116.869,,"Clarke, J.",7 Aug 1933 (7 August 1933),1,"Reviewed, Apr 2009, Reviewed by John W. Brown, USDA SEL.",,,,,,,,4/19/2013 14:23,http://n2t.net/ark:/65665/313179121-78a1-4ae1-aca1-c7fcbfa96c3d
,,Entomology Types,Insecta,Lepidoptera,Tortricidae,"Acleris macdunnoughi Obraztsov, 1963",Holotype,Obraztsov. 1963. Proceedings of the United States National Museum. 114: 214.,,female,Pinned,,,United States,Massachusetts,Worcester,Winchendon,,42.6862,-72.044,,[Not Stated],29 Sep 1902 (29 September 1902),1,"Reviewed, Apr 2009, Reviewed by John W. Brown, USDA SEL.",,,,,,,,4/19/2013 14:24,http://n2t.net/ark:/65665/358c55ff4-59b3-40d2-8a2e-78a64b6330e7
,,Entomology Types,Insecta,Lepidoptera,Tortricidae,"Acleris paracinderella Powell, 1964",Holotype,Powell. 1964. University of California Publications in Entomology. 32: 96.,,male,Pinned,,,United States,California,Nevada,[Not Stated],,39.3015,-120.768,,"Riley, C. V.",(OCT.),1,"Reviewed, Apr 2009, Reviewed by John W. Brown, USDA SEL.",,,,,,,,4/19/2013 14:23,http://n2t.net/ark:/65665/33887b7c2-1d7c-424b-991f-100a1bc8d015
,,Entomology Types,Insecta,Lepidoptera,Tortricidae,"Acleris santacrucis Obraztsov, 1963",Holotype,Obraztsov. 1963. Proceedings of the United States National Museum. 114: 225.,,male,Pinned,,,United States,California,Santa Cruz,Santa Cruz,,36.9741,-122.031,,"Tilden, W.",29 Oct 1932 (29 October 1932),1,"Reviewed, Apr 2009, Reviewed by John W. Brown, USDA SEL.",,,,,,,,4/19/2013 14:23,http://n2t.net/ark:/65665/3873de0cd-f8b1-4218-9ea8-45a3130f8f93
USNMENT   809890,USNMENT00809890,Entomology Types,Insecta,Hymenoptera,Braconidae,Aclisis montana Ashmead,Type,,,1 Adult Female,Pinned,,,United States,Colorado,Custer,West Cliff,,38.1347,-105.466,,"Cockerell, T.",([Not Stated]),1,"Reviewed, Dec 2012, Reviewed by Michael Gates, USDA SEL.",,,,,,,,1/9/2014 19:09,http://n2t.net/ark:/65665/3a58a9a51-042f-4dc1-95f3-f56e40f9823f
,,Inquire Types,Insecta,Hymenoptera,Diapriidae,"Aclista californica Ashmead, 1893",Type,"1893. Bulletin of the United States National Museum. 45: 375, 378.",,,,,,United States,California,[Not Stated],Santa Cruz Mountains,,37.1138,-121.953,,[Not Stated],,1,"Unreviewed, Aug 2009, legacy data of uncertain quality.",,,,,,,,1/7/2014 17:29,http://n2t.net/ark:/65665/35695730c-0003-415c-9872-bf2897092bca
,,Inquire Types,Insecta,Hymenoptera,Diapriidae,"Aclista conica Ashmead, 1893",Holotype,"1893. Bulletin of the United States National Museum. 45: 375, 377.",,,,,,United States,Virginia,Arlington,Arlington,,38.8904,-77.0841,,[Not Stated],,1,"Unreviewed, Aug 2009, legacy data of uncertain quality.",,,,,,,,1/7/2014 17:30,http://n2t.net/ark:/65665/3493964bc-dc66-4da1-84e8-914d52304691
,,Inquire Types,Insecta,Hymenoptera,Diapriidae,"Aclista floridana Ashmead, 1893",Holotype,"1893. Bulletin of the United States National Museum. 45: 376, 378.",,,,,,United States,Florida,Duval,Jacksonville,,30.3369,-81.6614,,[Not Stated],,1,"Unreviewed, Aug 2009, legacy data of uncertain quality.",,,,,,,,1/7/2014 17:30,http://n2t.net/ark:/65665/328b68de1-4162-49b4-a57e-3f0cd464210d
,,Inquire Types,Insecta,Hymenoptera,Diapriidae,"Aclista missouriensis Ashmead, 1893",Holotype,"1893. Bulletin of the United States National Museum. 45: 375, 377.",,,,,,United States,Missouri,St. Louis,St. Louis,,38.6272,-90.1978,,[Not Stated],"12 May 1878 (MAY 12, 78)",1,"Unreviewed, Aug 2009, legacy data of uncertain quality.",,,,,,,,1/7/2014 17:30,http://n2t.net/ark:/65665/3dadda269-a0a8-4b87-a953-e0a4870de575
USNMENT  1559430,USNMENT01559430,Inquire Types,Insecta,Hymenoptera,Diapriidae,"Aclista rufa Ashmead, 1893",Holotype,"1893. Bulletin of the United States National Museum. 45: 375, 376.",,,,,,United States,Texas,,[Not Stated],,,,,[Not Stated],([Not stated]),1,"Unreviewed, Aug 2009, legacy data of uncertain quality.",,,,,,,,2/13/2020 20:37,http://n2t.net/ark:/65665/3f72a98dc-f01a-4b06-8fbc-20b9d420dbe6
USNMENT  1559435,USNMENT01559435,Inquire Types,Insecta,Hymenoptera,Diapriidae,"Aclista rufescens Ashmead, 1893",Type,"1893. Bulletin of the United States National Museum. 45: 375, 376.",,,,,,United States,California,[Not Stated],Santa Cruz Mountains,,37.1138,-121.953,,[Not Stated],,1,"Unreviewed, Aug 2009, legacy data of uncertain quality.",,,,,,,,2/13/2020 20:39,http://n2t.net/ark:/65665/35bff3da9-0225-46b3-a638-a5b63f99887d
USNMENT  1559443,USNMENT01559443,Inquire Types,Insecta,Hymenoptera,Diapriidae,"Aclista rufopetiolata Ashmead, 1893",Type,"1893. Bulletin of the United States National Museum. 45: 375, 376.",,,,,,United States,District of Columbia,,Washington,,38.9047,-77.0164,,[Not Stated],,1,"Unreviewed, Aug 2009, legacy data of uncertain quality.",,,,,,,,2/13/2020 20:42,http://n2t.net/ark:/65665/3578d3022-dde1-402b-9aa3-220cc9ea4c1a
,,Entomology Types,Insecta,Coleoptera,Buprestidae,"Acmaeodera alicia Fall, 1899",Type,Fall. 1899. Jl. N.Y. Ent. Soc. 7 (1): 30.,,1 Adult,Pinned,,,United States,California,Los Angeles,[Not Stated],,34.05,-118.25,,"Coquillett, D. W.",([Not Stated]),1,"Data submitted by specialist, Sep 2012.",,,,,,,,1/9/2014 19:49,http://n2t.net/ark:/65665/349b0b076-5b18-4925-b220-e9bb2e206397
,,Entomology Types,Insecta,Coleoptera,Buprestidae,"Acmaeodera confusa Fisher, 1925",Type,Fisher. 1925. Proceedings of the United States National Museum. 65: 41.,,1 Adult,Pinned,,,United States,Florida,Monroe,Matecumbe Key,,24.8981,-80.6586,,[Not Stated],,1,"Data submitted by specialist, Sep 2012.",,,,,,,,1/9/2014 19:51,http://n2t.net/ark:/65665/330c8a4f7-b004-4fc0-853b-2f69bf701a9e
,,Entomology Types,Insecta,Coleoptera,Buprestidae,"Acmaeodera convicta Fall, 1899",Type,Fall. 1899. Jl. N.Y. Ent. Soc. 7 (1): 11.,,1 Adult,Pinned,,,United States,Arizona,[Not Stated],Santa Rita Mountains,,31.7231,-110.88,,Wickham,,1,"Data submitted by specialist, Sep 2012.",,,,,,,,1/9/2014 19:55,http://n2t.net/ark:/65665/347414637-d4c8-4ba3-8ba1-d9e3faa89392
,,Entomology Types,Insecta,Coleoptera,Buprestidae,"Acmaeodera fisheri Cazier, 1940",Holotype,Cazier. 1940. The Wasmann Collector. 4 (1): 19.,,1 Adult Male,Pinned,,,United States,California,Kern,Mojave,,35.0525,-118.174,,[Not Stated],,1,"Data submitted by specialist, Sep 2012.",,,,,,,,1/9/2014 20:02,http://n2t.net/ark:/65665/3b151c55c-f246-4c7f-9e91-6ca42dbc87be
,,Entomology Types,Insecta,Coleoptera,Buprestidae,"Acmaeodera gundlachi Fisher, 1925",Type,Fisher. 1925. Proceedings of the United States National Museum. 65: 47.,,1 Adult Male,Pinned,,,United States,Puerto Rico,Guanica,Guanica,,17.9717,-66.9081,,"Merrill, G. B.",15 Apr 1914 (15-IV-14),1,"Data submitted by specialist, Sep 2012.",,,,,,,,1/9/2014 19:51,http://n2t.net/ark:/65665/318c1327c-506e-425b-ad11-79a33e94f192
,,Entomology Types,Insecta,Coleoptera,Buprestidae,"Acmaeodera navajo Nelson & Westcott, 1995",Holotype,1995. The Coleopterists Bulletin. 49 (1): 82.,,1 Adult Female,Pinned,,,United States,Arizona,Coconino,9 miles northwest of Page,,36.9939,-111.563,,"Westcott, R. L.",3 Jun 1970 (VI-3-1970),1,"Data submitted by specialist, Sep 2012.",,,,,,,,4/22/2013 14:45,http://n2t.net/ark:/65665/32d5d1320-5f62-427a-ad24-ea8fab9026d7
,,Entomology Types,Insecta,Coleoptera,Buprestidae,"Acmaeodera perforata Cazier, 1940",Holotype,Cazier. 1940. The Wasmann Collector. 4 (1): 17.,,1 Adult Male,Pinned,,,United States,Texas,,New Braunfels; Tex,,,,,"Mittendorf, H.",May 1902 (V-02),1,"Data submitted by specialist, Sep 2012.",,,,,,,,4/29/2013 14:24,http://n2t.net/ark:/65665/35cec41e4-e7e9-40c5-a713-c94d07228909
,,Entomology Types,Insecta,Coleoptera,Buprestidae,"Acmaeodera postica Fall, 1899",Type,Fall. 1899. Jl. N.Y. Ent. Soc. 7 (1): 25.,,1 Adult,Pinned,,,United States,California,Los Angeles,[Not Stated],,34.05,-118.25,,"Coquillett, D. W.",([Not Stated]),1,"Data submitted by specialist, Sep 2012.",,,,,,,,1/9/2014 19:49,http://n2t.net/ark:/65665/3155d91d5-1bc2-4435-b08a-c8de3cdc0ad4
,,Entomology Types,Insecta,Coleoptera,Buprestidae,"Acmaeodera purshiae Fisher, 1926",Holotype,1926. Entomological News. 37: 114.,,1 Adult,Pinned,,,United States,Nevada,Washoe,Reno,,39.5272,-119.822,,Barber,Jan-23,1,"Data submitted by specialist, Sep 2012.",,,,,,,,1/9/2014 18:50,http://n2t.net/ark:/65665/3f1a2c911-8d88-4c5b-b82a-d48a216f8b9a
,,Entomology Types,Insecta,Coleoptera,Buprestidae,"Acmaeodera quadrivittatoides Nelson & Westcott, 1995",Holotype,1995. The Coleopterists Bulletin. 49 (1): 77.,,1 Adult Female,Pinned,,,United States,Texas,Brewster,"TEX., Big Bend Nat;' Pk. 3 mi. E. Panther Junction",,,,,"Nelson, G. H.; Nelson Family",22 Jun 1963 (VI-22-1963),1,"Data submitted by specialist, Sep 2012.",,,,,,,,4/22/2013 14:45,http://n2t.net/ark:/65665/39a46c0f2-1937-440a-b81a-e5509aba1be7
,,Entomology Types,Insecta,Coleoptera,Buprestidae,"Acmaeodera recticollis Fall, 1899",Type,Fall. 1899. Jl. N.Y. Ent. Soc. 7 (1): 14.,,1 Adult,Pinned,,,United States,Arizona,Navajo,Winslow,,35.0286,-110.701,,Wickham,,1,"Data submitted by specialist, Sep 2012.",,,,,,,,1/9/2014 19:56,http://n2t.net/ark:/65665/3b7ed7460-f22b-4081-a043-8e85c47b08ca
,,Entomology Types,Insecta,Coleoptera,Buprestidae,"Acmaeodera riograndei Nelson, 1980",Holotype,1980. Pan-Pacific Ent. 56 (3): 175.,,1 Adult Female,Pinned,,,United States,Texas,,"Tex., Big Bend N.P. Oak Sprs",,,,,"Nelson, G. H.",24 Jun 1971 (24-VI-1971),1,"Data submitted by specialist, Sep 2012.",,,,,,,,1/9/2014 18:50,http://n2t.net/ark:/65665/3a23c66dd-8a3d-403e-8f13-70fcb6757b2f
,,Entomology Types,Insecta,Coleoptera,Cerambycidae,"Acmaeops aurora Casey, 1913",Type,"Casey, T. L. 1913. Memoirs on the Coleoptera. 4: 244.","Acmaeops proteus (Kirby, 1837)",,,,,United States,Colorado,Boulder,Fraser,2438,39.945,-105.817,,[Not Stated],,1,"Data submitted by specialist, Jul 2011, Eugenio Nearns.",,,,,,,,3/23/2020 15:07,http://n2t.net/ark:/65665/38d187515-ab55-4f95-84e8-918c5aa645b0
,,Entomology Types,Insecta,Coleoptera,Cerambycidae,"Acmaeops cavicollis Casey, 1913",Type,"Casey, T. L. 1913. Memoirs on the Coleoptera. 4: 244.","Acmaeops proteus (Kirby, 1837)",,,,,United States,Maine,Oxford,Paris,,44.2598,-70.5006,,"Frost, C. A.",16 Jun 1910 (VI-16-10),1,"Data submitted by specialist, Jul 2011, Eugenio Nearns.",,,,,,,,1/9/2014 19:40,http://n2t.net/ark:/65665/3e379fa7b-6bf5-4ded-90bb-433366a4c605
,,Entomology Types,Insecta,Coleoptera,Cerambycidae,"Acmaeops coloradensis Casey, 1913",Type,"Casey, T. L. 1913. Memoirs on the Coleoptera. 4: 244.","Acmaeops proteus (Kirby, 1837)",,,,,United States,Colorado,,Fraser,2438,39.945,-105.817,,"Frost, C. A.",4-Jul-11,1,"Data submitted by specialist, Jul 2011, Eugenio Nearns.",,,,,,,,1/9/2014 19:40,http://n2t.net/ark:/65665/36a58a2f4-70ff-46f1-ad56-ca106b2fa95a
,,Entomology Types,Insecta,Coleoptera,Cerambycidae,"Acmaeops obsoleta Casey, 1913",Type,"Casey, T. L. 1913. Memoirs on the Coleoptera. 4: 243.","Acmaeops proteus proteus (Kirby, 1837)",,,,,United States,Colorado,[Not Stated],[Not Stated],,,,,[Not Stated],,1,"Data submitted by specialist, Jul 2011, Eugenio Nearns.",,,,,,,,1/9/2014 19:40,http://n2t.net/ark:/65665/3d20a9eeb-6355-4a2f-b012-00a4aeafe94f
,,Entomology Types,Insecta,Coleoptera,Cerambycidae,"Acmaeops parkeri Casey, 1913",Type,"Casey, T. L. 1913. Memoirs on the Coleoptera. 4: 242.","Acmaeops proteus (Kirby, 1837)",,,,,United States,Colorado,Boulder,[Not Stated],,40.015,-105.27,,"Park(er), F. V.",([Not Stated]),1,"Data submitted by specialist, Jul 2011, Eugenio Nearns.",,,,,,,,3/23/2020 15:08,http://n2t.net/ark:/65665/37f15f0ad-1eb8-4ee5-86d2-e5cc897f9172
,,Entomology Types,Insecta,Coleoptera,Cerambycidae,"Acmaeops pinicola Schaeffer, 1908",Type,"Schaeffer, C. F. 1908. Mus. Brooklyn Inst. Bull. 1 (12): 341.","Acmaeops proteus proteus (Kirby, 1837)",,,,,United States,Arizona,Cochise,Carr's Peak; Huachuca Mountains,,31.4128,-110.304,,[Not Stated],,1,"Data submitted by specialist, Jul 2011, Eugenio Nearns.",,,,,,,,1/9/2014 19:41,http://n2t.net/ark:/65665/33cf62a4b-a36e-4994-9418-6796a28038db
,,Entomology Types,Insecta,Coleoptera,Cerambycidae,"Acmaeops puncticeps Casey, 1913",Type,"Casey, T. L. 1913. Memoirs on the Coleoptera. 4: 246.","Acmaeops proteus (Kirby, 1837)",,,,,United States,Colorado,[Not Stated],[Not Stated],,,,,[Not Stated],,1,"Data submitted by specialist, Jul 2011, Eugenio Nearns.",,,,,,,,3/23/2020 15:08,http://n2t.net/ark:/65665/3adfbfc0a-1ac3-419e-abc4-b11205d94ecf
,,Entomology Types,Insecta,Coleoptera,Cerambycidae,"Acmaeops scutellata Casey, 1924",Type,"Casey, T. L. 1924. Memoirs on the Coleoptera. 11: 276.","Acmaeops proteus (Kirby, 1837)",,,,,United States,Idaho,Bonner,Priest Lake,,48.5675,-116.831,,[Not Stated],,1,"Data submitted by specialist, Jul 2011, Eugenio Nearns.",,,,,,,,3/23/2020 15:09,http://n2t.net/ark:/65665/350ef5b90-9a5f-4179-af37-1fcdd169b3d2
,,Entomology Types,Insecta,Coleoptera,Cerambycidae,"Acmaeops variipes Casey, 1891",Type,"Casey, T. L. 1891. Annals of the New York Academy of Sciences. 6: 38.","Cortodera militaris variipes (Casey, 1891)",,,,,United States,[Not Stated],,[Not Stated],,,,,[Not Stated],([Not Stated]),1,"Data submitted by specialist, Jul 2011, Eugenio Nearns.",,,,,,,,9/26/2013 15:55,http://n2t.net/ark:/65665/3b0a3e1c7-23a7-4a4a-a9ea-0837ad8b964f
